[
  {
    "filename": "ak117_248.jpg",
    "URL": "https://iiif.onb.ac.at/images/AKON/AK117_248/248/full/full/0/native.jpg",
    "latitude": 48.8048,
    "longitude": 9.2145,
    "ID": "DE",
    "city": "Bad Cannstatt",
    "building": "kursaal, Städt. kurhaus",
    "date": 1897
  },
  {
    "filename": "ak071_229.jpg",
    "URL": "https://iiif.onb.ac.at/images/AKON/AK071_229/229/full/full/0/native.jpg",
    "latitude": 47.61667,
    "longitude": 15.85,
    "ID": "AT",
    "city": "Sonnwendstein",
    "building": "Schutzhaus",
    "date": 1898
  },
  {
    "filename": "ak075_234.jpg",
    "URL": "https://iiif.onb.ac.at/images/AKON/AK075_234/234/full/full/0/native.jpg",
    "latitude": 48.19035,
    "longitude": 16.26552,
    "ID": "AT",
    "city": "Ober-Sankt-Veit",
    "building": "Einsiedelei",
    "date": 1898
  },
  {
    "filename": "ak111_201.jpg",
    "URL": "https://iiif.onb.ac.at/images/AKON/AK111_201/201/full/full/0/native.jpg",
    "latitude": 48.30521,
    "longitude": 16.32522,
    "ID": "AT",
    "city": "Klosterneuburg",
    "building": "Stift, Stiftskirche",
    "date": 1898
  },
  {
    "filename": "ak102_357.jpg",
    "URL": "https://iiif.onb.ac.at/images/AKON/AK102_357/357/full/full/0/native.jpg",
    "latitude": 46.19451,
    "longitude": 8.05753,
    "ID": "CH",
    "city": "Simplon Dorf",
    "building": "Hospice du Simplon",
    "date": 1898
  },
  {
    "filename": "ak108_352.jpg",
    "URL": "https://iiif.onb.ac.at/images/AKON/AK108_352/352/full/full/0/native.jpg",
    "latitude": 47.55631,
    "longitude": 10.74085,
    "ID": "DE",
    "city": "Hohenschwangau",
    "building": "Schloss Hohenschwangau",
    "date": 1898
  },
  {
    "filename": "ak081_048.jpg",
    "URL": "https://iiif.onb.ac.at/images/AKON/AK081_048/048/full/full/0/native.jpg",
    "latitude": 48.20609,
    "longitude": 16.41169,
    "ID": "AT",
    "city": "Prater",
    "building": "Bieger's Caffe Restaurant",
    "date": 1899
  },
  {
    "filename": "ak100_586.jpg",
    "URL": "https://iiif.onb.ac.at/images/AKON/AK100_586/586/full/full/0/native.jpg",
    "latitude": 50.56024,
    "longitude": 14.19848,
    "ID": "CZ",
    "city": "Ploskovice",
    "building": "Kaiserl. Gut",
    "date": 1899
  },
  {
    "filename": "ak117_268.jpg",
    "URL": "https://iiif.onb.ac.at/images/AKON/AK117_268/268/full/full/0/native.jpg",
    "latitude": 50.25937,
    "longitude": 10.96384,
    "ID": "DE",
    "city": "Coburg",
    "building": "Ehrenburg",
    "date": 1899
  },
  {
    "filename": "ak029_194.jpg",
    "URL": "https://iiif.onb.ac.at/images/AKON/AK029_194/194/full/full/0/native.jpg",
    "latitude": 47.054,
    "longitude": 12.9576,
    "ID": "AT",
    "city": "Hoher Sonnblick",
    "building": "Sonnblick-Zittelhaus",
    "date": 1900
  },
  {
    "filename": "ak029_207.jpg",
    "URL": "https://iiif.onb.ac.at/images/AKON/AK029_207/207/full/full/0/native.jpg",
    "latitude": 47.05,
    "longitude": 13.05,
    "ID": "AT",
    "city": "Nassfeld",
    "building": "Valeriehütte",
    "date": 1900
  },
  {
    "filename": "ak033_067.jpg",
    "URL": "https://iiif.onb.ac.at/images/AKON/AK033_067/067/full/full/0/native.jpg",
    "latitude": 48.20769,
    "longitude": 16.17539,
    "ID": "AT",
    "city": "Purkersdorf",
    "building": "Sanatorium",
    "date": 1900
  },
  {
    "filename": "ak041_446.jpg",
    "URL": "https://iiif.onb.ac.at/images/AKON/AK041_446/446/full/full/0/native.jpg",
    "latitude": 47.05,
    "longitude": 13.05,
    "ID": "AT",
    "city": "Nassfeld",
    "building": "Valeriehütte",
    "date": 1900
  },
  {
    "filename": "ak058_145.jpg",
    "URL": "https://iiif.onb.ac.at/images/AKON/AK058_145/145/full/full/0/native.jpg",
    "latitude": 47.054,
    "longitude": 12.9576,
    "ID": "AT",
    "city": "Hoher Sonnblick",
    "building": "Zittelhaus",
    "date": 1900
  },
  {
    "filename": "ak040_275.jpg",
    "URL": "https://iiif.onb.ac.at/images/AKON/AK040_275/275/full/full/0/native.jpg",
    "latitude": 50.01058,
    "longitude": 12.62474,
    "ID": "CZ",
    "city": "Lázně Kynžvart",
    "building": "Richard's Quelle",
    "date": 1900
  },
  {
    "filename": "ak069_027.jpg",
    "URL": "https://iiif.onb.ac.at/images/AKON/AK069_027/027/full/full/0/native.jpg",
    "latitude": 49.19522,
    "longitude": 16.60796,
    "ID": "CZ",
    "city": "Brünn",
    "building": "Dom",
    "date": 1900
  },
  {
    "filename": "ak081_106.jpg",
    "URL": "https://iiif.onb.ac.at/images/AKON/AK081_106/106/full/full/0/native.jpg",
    "latitude": 47.59812,
    "longitude": 11.06692,
    "ID": "DE",
    "city": "Oberammergau",
    "building": "Gasthof zur alten Post, Wittelsbacher Hof",
    "date": 1900
  },
  {
    "filename": "ak121_337.jpg",
    "URL": "https://iiif.onb.ac.at/images/AKON/AK121_337/337/full/full/0/native.jpg",
    "latitude": 51.05089,
    "longitude": 13.73832,
    "ID": "DE",
    "city": "Dresden",
    "building": "Königl. Opernhaus",
    "date": 1900
  },
  {
    "filename": "ak011_417.jpg",
    "URL": "https://iiif.onb.ac.at/images/AKON/AK011_417/417/full/full/0/native.jpg",
    "latitude": 45.70258,
    "longitude": 13.71261,
    "ID": "IT",
    "city": "Miramare Castle",
    "building": "Castello Miramare",
    "date": 1900
  },
  {
    "filename": "ak068_100.jpg",
    "URL": "https://iiif.onb.ac.at/images/AKON/AK068_100/100/full/full/0/native.jpg",
    "latitude": 45.91772,
    "longitude": 10.88672,
    "ID": "IT",
    "city": "Arco",
    "building": "Castello",
    "date": 1900
  },
  {
    "filename": "ak093_298.jpg",
    "URL": "https://iiif.onb.ac.at/images/AKON/AK093_298/298/full/full/0/native.jpg",
    "latitude": 45.62396,
    "longitude": 10.56682,
    "ID": "IT",
    "city": "Gardone Riviera",
    "building": "Grand Hôtel Fasano",
    "date": 1900
  },
  {
    "filename": "ak044_545.jpg",
    "URL": "https://iiif.onb.ac.at/images/AKON/AK044_545/545/full/full/0/native.jpg",
    "latitude": 47.7,
    "longitude": 15.7,
    "ID": "AT",
    "city": "Karl Ludwighaus",
    "building": "Kalr Ludwig-Schutzhaus",
    "date": 1901
  },
  {
    "filename": "ak052_233.jpg",
    "URL": "https://iiif.onb.ac.at/images/AKON/AK052_233/233/full/full/0/native.jpg",
    "latitude": 47.63347,
    "longitude": 15.82993,
    "ID": "AT",
    "city": "Semmering",
    "building": "Neue Villen",
    "date": 1901
  },
  {
    "filename": "ak103_209.jpg",
    "URL": "https://iiif.onb.ac.at/images/AKON/AK103_209/209/full/full/0/native.jpg",
    "latitude": 48.69725,
    "longitude": 15.32756,
    "ID": "AT",
    "city": "Allentsteig",
    "building": "Schloss Allentsteig",
    "date": 1901
  },
  {
    "filename": "ak095_522.jpg",
    "URL": "https://iiif.onb.ac.at/images/AKON/AK095_522/522/full/full/0/native.jpg",
    "latitude": 52.52437,
    "longitude": 13.41053,
    "ID": "DE",
    "city": "Berlin",
    "building": "Königl. Zeughaus",
    "date": 1901
  },
  {
    "filename": "ak009_223.jpg",
    "URL": "https://iiif.onb.ac.at/images/AKON/AK009_223/223/full/full/0/native.jpg",
    "latitude": 48.09247,
    "longitude": 16.27071,
    "ID": "AT",
    "city": "Burg Liechtenstein",
    "building": "Burg Liechtenstein",
    "date": 1902
  },
  {
    "filename": "ak070_069.jpg",
    "URL": "https://iiif.onb.ac.at/images/AKON/AK070_069/069/full/full/0/native.jpg",
    "latitude": 46.81306,
    "longitude": 14.36861,
    "ID": "AT",
    "city": "Kraig",
    "building": "Schloss Neu-Kraig",
    "date": 1902
  },
  {
    "filename": "ak109_212.jpg",
    "URL": "https://iiif.onb.ac.at/images/AKON/AK109_212/212/full/full/0/native.jpg",
    "latitude": 46.83806,
    "longitude": 12.84944,
    "ID": "AT",
    "city": "Iselsberg",
    "building": "Die Wacht am Iselsberg",
    "date": 1902
  },
  {
    "filename": "ak094_068.jpg",
    "URL": "https://iiif.onb.ac.at/images/AKON/AK094_068/068/full/full/0/native.jpg",
    "latitude": 51.5,
    "longitude": 12,
    "ID": "DE",
    "city": "Halle",
    "building": "Universitätsbibliothek",
    "date": 1902
  },
  {
    "filename": "ak108_350.jpg",
    "URL": "https://iiif.onb.ac.at/images/AKON/AK108_350/350/full/full/0/native.jpg",
    "latitude": 47.55631,
    "longitude": 10.74085,
    "ID": "DE",
    "city": "Hohenschwangau",
    "building": "Schloss Hohenschwangau",
    "date": 1902
  },
  {
    "filename": "ak011_416.jpg",
    "URL": "https://iiif.onb.ac.at/images/AKON/AK011_416/416/full/full/0/native.jpg",
    "latitude": 45.69956,
    "longitude": 13.72539,
    "ID": "IT",
    "city": "Miramare Hotel",
    "building": "Miramare, Schweizerhaus",
    "date": 1902
  },
  {
    "filename": "ak068_091.jpg",
    "URL": "https://iiif.onb.ac.at/images/AKON/AK068_091/091/full/full/0/native.jpg",
    "latitude": 45.91772,
    "longitude": 10.88672,
    "ID": "IT",
    "city": "Arco",
    "building": "Castell",
    "date": 1902
  },
  {
    "filename": "ak101_152.jpg",
    "URL": "https://iiif.onb.ac.at/images/AKON/AK101_152/152/full/full/0/native.jpg",
    "latitude": 44.3496,
    "longitude": 9.22796,
    "ID": "IT",
    "city": "Rapallo",
    "building": "Hotel des Etrangers",
    "date": 1902
  },
  {
    "filename": "ak118_088.jpg",
    "URL": "https://iiif.onb.ac.at/images/AKON/AK118_088/088/full/full/0/native.jpg",
    "latitude": 52.07667,
    "longitude": 4.29861,
    "ID": "NL",
    "city": "s-Gravenhage",
    "building": "Buitenhof",
    "date": 1902
  },
  {
    "filename": "ak033_011.jpg",
    "URL": "https://iiif.onb.ac.at/images/AKON/AK033_011/011/full/full/0/native.jpg",
    "latitude": 47.61667,
    "longitude": 15.8,
    "ID": "AT",
    "city": "Steinhaus am Semmering",
    "building": "Villa Marienhof, Villa Edelweiss",
    "date": 1903
  },
  {
    "filename": "ak033_012.jpg",
    "URL": "https://iiif.onb.ac.at/images/AKON/AK033_012/012/full/full/0/native.jpg",
    "latitude": 47.61667,
    "longitude": 15.8,
    "ID": "AT",
    "city": "Steinhaus am Semmering",
    "building": "Villa Marienhof, Villa Edelweiss",
    "date": 1903
  },
  {
    "filename": "ak106_250.jpg",
    "URL": "https://iiif.onb.ac.at/images/AKON/AK106_250/250/full/full/0/native.jpg",
    "latitude": 46.81417,
    "longitude": 14.29417,
    "ID": "AT",
    "city": "Frauenstein",
    "building": "Schloss Frauenstein",
    "date": 1903
  },
  {
    "filename": "ak118_478.jpg",
    "URL": "https://iiif.onb.ac.at/images/AKON/AK118_478/478/full/full/0/native.jpg",
    "latitude": 47.876,
    "longitude": 15.88881,
    "ID": "AT",
    "city": "Gutenstein",
    "building": "Wallfahrtskirche am Mariahilfberg",
    "date": 1903
  },
  {
    "filename": "ak103_386.jpg",
    "URL": "https://iiif.onb.ac.at/images/AKON/AK103_386/386/full/full/0/native.jpg",
    "latitude": 50.08333,
    "longitude": 17.16667,
    "ID": "CZ",
    "city": "Altvatergebirge",
    "building": "Schweizerei am Altvater",
    "date": 1903
  },
  {
    "filename": "ak088_519.jpg",
    "URL": "https://iiif.onb.ac.at/images/AKON/AK088_519/519/full/full/0/native.jpg",
    "latitude": 49.89873,
    "longitude": 10.90067,
    "ID": "DE",
    "city": "Bamberg",
    "building": "Alte Residenz",
    "date": 1903
  },
  {
    "filename": "ak026_140.jpg",
    "URL": "https://iiif.onb.ac.at/images/AKON/AK026_140/140/full/full/0/native.jpg",
    "latitude": 46.5054,
    "longitude": 13.30622,
    "ID": "IT",
    "city": "Pontebba",
    "building": "Neuer Bahnhof",
    "date": 1903
  },
  {
    "filename": "ak100_459.jpg",
    "URL": "https://iiif.onb.ac.at/images/AKON/AK100_459/459/full/full/0/native.jpg",
    "latitude": 46.06434,
    "longitude": 11.23758,
    "ID": "IT",
    "city": "Pergine Valsugana",
    "building": "Castello",
    "date": 1903
  },
  {
    "filename": "ak100_461.jpg",
    "URL": "https://iiif.onb.ac.at/images/AKON/AK100_461/461/full/full/0/native.jpg",
    "latitude": 46.06434,
    "longitude": 11.23758,
    "ID": "IT",
    "city": "Pergine Valsugana",
    "building": "Castello",
    "date": 1903
  },
  {
    "filename": "ak014_033.jpg",
    "URL": "https://iiif.onb.ac.at/images/AKON/AK014_033/033/full/full/0/native.jpg",
    "latitude": 48.20906,
    "longitude": 16.37135,
    "ID": "AT",
    "city": "Innere Stadt",
    "building": "Evangelische Schule, Freihaus",
    "date": 1904
  },
  {
    "filename": "ak032_435.jpg",
    "URL": "https://iiif.onb.ac.at/images/AKON/AK032_435/435/full/full/0/native.jpg",
    "latitude": 47.78333,
    "longitude": 15.78333,
    "ID": "AT",
    "city": "Schneeberg",
    "building": "Hotel Hochschneeberg",
    "date": 1904
  },
  {
    "filename": "ak062_338.jpg",
    "URL": "https://iiif.onb.ac.at/images/AKON/AK062_338/338/full/full/0/native.jpg",
    "latitude": 47.21667,
    "longitude": 12.71667,
    "ID": "AT",
    "city": "Kaprunertal",
    "building": "Moserbodenhôtel",
    "date": 1904
  },
  {
    "filename": "ak072_178.jpg",
    "URL": "https://iiif.onb.ac.at/images/AKON/AK072_178/178/full/full/0/native.jpg",
    "latitude": 47.56667,
    "longitude": 12.23333,
    "ID": "AT",
    "city": "Kaindlhütte",
    "building": "Unterkunftshaus Steinberg",
    "date": 1904
  },
  {
    "filename": "ak072_370.jpg",
    "URL": "https://iiif.onb.ac.at/images/AKON/AK072_370/370/full/full/0/native.jpg",
    "latitude": 47.6,
    "longitude": 12.16667,
    "ID": "AT",
    "city": "Thierberg",
    "building": "Edelsitz Thierberg",
    "date": 1904
  },
  {
    "filename": "ak086_394.jpg",
    "URL": "https://iiif.onb.ac.at/images/AKON/AK086_394/394/full/full/0/native.jpg",
    "latitude": 47.76667,
    "longitude": 15.83333,
    "ID": "AT",
    "city": "Damböckhaus",
    "building": "Damböckhaus",
    "date": 1904
  },
  {
    "filename": "ak105_315.jpg",
    "URL": "https://iiif.onb.ac.at/images/AKON/AK105_315/315/full/full/0/native.jpg",
    "latitude": 47.71109,
    "longitude": 13.61893,
    "ID": "AT",
    "city": "Bad Ischl",
    "building": "Café Walter",
    "date": 1904
  },
  {
    "filename": "ak105_316.jpg",
    "URL": "https://iiif.onb.ac.at/images/AKON/AK105_316/316/full/full/0/native.jpg",
    "latitude": 47.71109,
    "longitude": 13.61893,
    "ID": "AT",
    "city": "Bad Ischl",
    "building": "Café Walter",
    "date": 1904
  },
  {
    "filename": "ak105_370.jpg",
    "URL": "https://iiif.onb.ac.at/images/AKON/AK105_370/370/full/full/0/native.jpg",
    "latitude": 47.71109,
    "longitude": 13.61893,
    "ID": "AT",
    "city": "Bad Ischl",
    "building": "Hôtel Kaiserin Elisabeth",
    "date": 1904
  },
  {
    "filename": "ak114_566.jpg",
    "URL": "https://iiif.onb.ac.at/images/AKON/AK114_566/566/full/full/0/native.jpg",
    "latitude": 47.91839,
    "longitude": 13.79933,
    "ID": "AT",
    "city": "Gmunden",
    "building": "Schloss Ort",
    "date": 1904
  },
  {
    "filename": "ak115_409.jpg",
    "URL": "https://iiif.onb.ac.at/images/AKON/AK115_409/409/full/full/0/native.jpg",
    "latitude": 47.06667,
    "longitude": 15.45,
    "ID": "AT",
    "city": "Graz",
    "building": "Universität",
    "date": 1904
  },
  {
    "filename": "ak115_444.jpg",
    "URL": "https://iiif.onb.ac.at/images/AKON/AK115_444/444/full/full/0/native.jpg",
    "latitude": 47.06667,
    "longitude": 15.45,
    "ID": "AT",
    "city": "Graz",
    "building": "Universität",
    "date": 1904
  },
  {
    "filename": "ak117_055.jpg",
    "URL": "https://iiif.onb.ac.at/images/AKON/AK117_055/055/full/full/0/native.jpg",
    "latitude": 47.96004,
    "longitude": 14.77361,
    "ID": "AT",
    "city": "Waidhofen an der Ybbs",
    "building": "Electricitätswerk",
    "date": 1904
  },
  {
    "filename": "ak069_011.jpg",
    "URL": "https://iiif.onb.ac.at/images/AKON/AK069_011/011/full/full/0/native.jpg",
    "latitude": 50.50301,
    "longitude": 13.63617,
    "ID": "CZ",
    "city": "Brüx",
    "building": "Stadtkirche",
    "date": 1904
  },
  {
    "filename": "ak103_385.jpg",
    "URL": "https://iiif.onb.ac.at/images/AKON/AK103_385/385/full/full/0/native.jpg",
    "latitude": 50.08333,
    "longitude": 17.16667,
    "ID": "CZ",
    "city": "Altvatergebirge",
    "building": "Georgschutzhaus",
    "date": 1904
  },
  {
    "filename": "ak073_222.jpg",
    "URL": "https://iiif.onb.ac.at/images/AKON/AK073_222/222/full/full/0/native.jpg",
    "latitude": 51.10771,
    "longitude": 10.646,
    "ID": "DE",
    "city": "Bad Langensalza",
    "building": "Kirche",
    "date": 1904
  },
  {
    "filename": "ak088_512.jpg",
    "URL": "https://iiif.onb.ac.at/images/AKON/AK088_512/512/full/full/0/native.jpg",
    "latitude": 49.89873,
    "longitude": 10.90067,
    "ID": "DE",
    "city": "Bamberg",
    "building": "Alte Residenz",
    "date": 1904
  },
  {
    "filename": "ak094_031.jpg",
    "URL": "https://iiif.onb.ac.at/images/AKON/AK094_031/031/full/full/0/native.jpg",
    "latitude": 53.57532,
    "longitude": 10.01534,
    "ID": "DE",
    "city": "Hamburg",
    "building": "Badeanstalt Lübeckertor",
    "date": 1904
  },
  {
    "filename": "ak094_032.jpg",
    "URL": "https://iiif.onb.ac.at/images/AKON/AK094_032/032/full/full/0/native.jpg",
    "latitude": 53.57532,
    "longitude": 10.01534,
    "ID": "DE",
    "city": "Hamburg",
    "building": "Bade-Anstalt",
    "date": 1904
  },
  {
    "filename": "ak094_335.jpg",
    "URL": "https://iiif.onb.ac.at/images/AKON/AK094_335/335/full/full/0/native.jpg",
    "latitude": 54.18213,
    "longitude": 7.88458,
    "ID": "DE",
    "city": "Helgoland",
    "building": "Kurhaus",
    "date": 1904
  },
  {
    "filename": "ak099_361.jpg",
    "URL": "https://iiif.onb.ac.at/images/AKON/AK099_361/361/full/full/0/native.jpg",
    "latitude": 48.47377,
    "longitude": 7.94495,
    "ID": "DE",
    "city": "Offenburg",
    "building": "Rathaus",
    "date": 1904
  },
  {
    "filename": "ak099_365.jpg",
    "URL": "https://iiif.onb.ac.at/images/AKON/AK099_365/365/full/full/0/native.jpg",
    "latitude": 48.47377,
    "longitude": 7.94495,
    "ID": "DE",
    "city": "Offenburg",
    "building": "Casernen",
    "date": 1904
  },
  {
    "filename": "ak101_207.jpg",
    "URL": "https://iiif.onb.ac.at/images/AKON/AK101_207/207/full/full/0/native.jpg",
    "latitude": 50.57879,
    "longitude": 7.22703,
    "ID": "DE",
    "city": "Remagen",
    "building": "Apollinariskirche",
    "date": 1904
  },
  {
    "filename": "ak102_359.jpg",
    "URL": "https://iiif.onb.ac.at/images/AKON/AK102_359/359/full/full/0/native.jpg",
    "latitude": 47.75935,
    "longitude": 8.8403,
    "ID": "DE",
    "city": "Singen",
    "building": "Kirche",
    "date": 1904
  },
  {
    "filename": "ak102_503.jpg",
    "URL": "https://iiif.onb.ac.at/images/AKON/AK102_503/503/full/full/0/native.jpg",
    "latitude": 50.76749,
    "longitude": 6.07278,
    "ID": "DE",
    "city": "domicil Residenz Hotel Bad Aachen",
    "building": "Rathaus",
    "date": 1904
  },
  {
    "filename": "ak101_386.jpg",
    "URL": "https://iiif.onb.ac.at/images/AKON/AK101_386/386/full/full/0/native.jpg",
    "latitude": 36.74231,
    "longitude": -5.16709,
    "ID": "ES",
    "city": "Ronda",
    "building": "Santa Maria la Mayor",
    "date": 1904
  },
  {
    "filename": "ak079_308.jpg",
    "URL": "https://iiif.onb.ac.at/images/AKON/AK079_308/308/full/full/0/native.jpg",
    "latitude": 48.58392,
    "longitude": 7.74553,
    "ID": "FR",
    "city": "Strassburg",
    "building": "Kaiserpalast",
    "date": 1904
  },
  {
    "filename": "ak054_463.jpg",
    "URL": "https://iiif.onb.ac.at/images/AKON/AK054_463/463/full/full/0/native.jpg",
    "latitude": 46.45472,
    "longitude": 11.26178,
    "ID": "IT",
    "city": "Eppan an der Weinstraße",
    "building": "Ruine Altenburg",
    "date": 1904
  },
  {
    "filename": "ak061_334.jpg",
    "URL": "https://iiif.onb.ac.at/images/AKON/AK061_334/334/full/full/0/native.jpg",
    "latitude": 46.66817,
    "longitude": 11.15953,
    "ID": "IT",
    "city": "Meran",
    "building": "Schloss Pienzenau",
    "date": 1904
  },
  {
    "filename": "ak063_375.jpg",
    "URL": "https://iiif.onb.ac.at/images/AKON/AK063_375/375/full/full/0/native.jpg",
    "latitude": 46.66817,
    "longitude": 11.15953,
    "ID": "IT",
    "city": "Meran",
    "building": "Schloss Hochnaturns",
    "date": 1904
  },
  {
    "filename": "ak063_376.jpg",
    "URL": "https://iiif.onb.ac.at/images/AKON/AK063_376/376/full/full/0/native.jpg",
    "latitude": 46.66817,
    "longitude": 11.15953,
    "ID": "IT",
    "city": "Meran",
    "building": "Schloss Hochnaturns",
    "date": 1904
  },
  {
    "filename": "ak064_229.jpg",
    "URL": "https://iiif.onb.ac.at/images/AKON/AK064_229/229/full/full/0/native.jpg",
    "latitude": 47.00088,
    "longitude": 11.50394,
    "ID": "IT",
    "city": "Brenner",
    "building": "Villa Waldheim",
    "date": 1904
  },
  {
    "filename": "ak066_300.jpg",
    "URL": "https://iiif.onb.ac.at/images/AKON/AK066_300/300/full/full/0/native.jpg",
    "latitude": 46.66817,
    "longitude": 11.15953,
    "ID": "IT",
    "city": "Meran",
    "building": "Edelsitz Kalmünz",
    "date": 1904
  },
  {
    "filename": "ak067_145.jpg",
    "URL": "https://iiif.onb.ac.at/images/AKON/AK067_145/145/full/full/0/native.jpg",
    "latitude": 46.66817,
    "longitude": 11.15953,
    "ID": "IT",
    "city": "Meran",
    "building": "Ruine Helfmirgott, Schloss Rotund, Ruine Reichenberg",
    "date": 1904
  },
  {
    "filename": "ak067_180.jpg",
    "URL": "https://iiif.onb.ac.at/images/AKON/AK067_180/180/full/full/0/native.jpg",
    "latitude": 46.78392,
    "longitude": 11.22727,
    "ID": "IT",
    "city": "San Martino in Passiria",
    "building": "Schildhof",
    "date": 1904
  },
  {
    "filename": "ak067_452.jpg",
    "URL": "https://iiif.onb.ac.at/images/AKON/AK067_452/452/full/full/0/native.jpg",
    "latitude": 46.76415,
    "longitude": 10.53397,
    "ID": "IT",
    "city": "Sankt Valentin auf der Haid",
    "building": "Hôtel Post",
    "date": 1904
  },
  {
    "filename": "ak067_509.jpg",
    "URL": "https://iiif.onb.ac.at/images/AKON/AK067_509/509/full/full/0/native.jpg",
    "latitude": 46.66817,
    "longitude": 11.15953,
    "ID": "IT",
    "city": "Meran",
    "building": "Edelsitz Schickenburg",
    "date": 1904
  },
  {
    "filename": "ak069_191.jpg",
    "URL": "https://iiif.onb.ac.at/images/AKON/AK069_191/191/full/full/0/native.jpg",
    "latitude": 46.66817,
    "longitude": 11.15953,
    "ID": "IT",
    "city": "Meran",
    "building": "Schloss Churburg",
    "date": 1904
  },
  {
    "filename": "ak069_201.jpg",
    "URL": "https://iiif.onb.ac.at/images/AKON/AK069_201/201/full/full/0/native.jpg",
    "latitude": 46.64801,
    "longitude": 11.00129,
    "ID": "IT",
    "city": "Naturns",
    "building": "Schloss Dornsberg",
    "date": 1904
  },
  {
    "filename": "ak070_063.jpg",
    "URL": "https://iiif.onb.ac.at/images/AKON/AK070_063/063/full/full/0/native.jpg",
    "latitude": 46.63277,
    "longitude": 11.14696,
    "ID": "IT",
    "city": "Tscherms",
    "building": "Edelsitz Kränzel",
    "date": 1904
  },
  {
    "filename": "ak071_252.jpg",
    "URL": "https://iiif.onb.ac.at/images/AKON/AK071_252/252/full/full/0/native.jpg",
    "latitude": 46.45472,
    "longitude": 11.26178,
    "ID": "IT",
    "city": "Eppan an der Weinstraße",
    "building": "Schloss Freudenstein",
    "date": 1904
  },
  {
    "filename": "ak071_356.jpg",
    "URL": "https://iiif.onb.ac.at/images/AKON/AK071_356/356/full/full/0/native.jpg",
    "latitude": 46.61901,
    "longitude": 10.59136,
    "ID": "IT",
    "city": "Prad am Stilfserjoch",
    "building": "Ruine Gargitz",
    "date": 1904
  },
  {
    "filename": "ak072_063.jpg",
    "URL": "https://iiif.onb.ac.at/images/AKON/AK072_063/063/full/full/0/native.jpg",
    "latitude": 46.49067,
    "longitude": 11.33982,
    "ID": "IT",
    "city": "Bozen",
    "building": "Schloss Sigmundskron",
    "date": 1904
  },
  {
    "filename": "ak072_397.jpg",
    "URL": "https://iiif.onb.ac.at/images/AKON/AK072_397/397/full/full/0/native.jpg",
    "latitude": 46.5517,
    "longitude": 10.50988,
    "ID": "IT",
    "city": "Trafoi",
    "building": "Neue Kirche",
    "date": 1904
  },
  {
    "filename": "ak078_596.jpg",
    "URL": "https://iiif.onb.ac.at/images/AKON/AK078_596/596/full/full/0/native.jpg",
    "latitude": 45.93632,
    "longitude": 11.27206,
    "ID": "IT",
    "city": "Lavarone",
    "building": "Hôtel du Lac",
    "date": 1904
  },
  {
    "filename": "ak092_190.jpg",
    "URL": "https://iiif.onb.ac.at/images/AKON/AK092_190/190/full/full/0/native.jpg",
    "latitude": 46.66817,
    "longitude": 11.15953,
    "ID": "IT",
    "city": "Meran",
    "building": "Edelsitz Erlach",
    "date": 1904
  },
  {
    "filename": "ak103_033.jpg",
    "URL": "https://iiif.onb.ac.at/images/AKON/AK103_033/033/full/full/0/native.jpg",
    "latitude": 37.32744,
    "longitude": 13.59351,
    "ID": "IT",
    "city": "Girgenti",
    "building": "Tempio di Giove Olimpico",
    "date": 1904
  },
  {
    "filename": "ak103_034.jpg",
    "URL": "https://iiif.onb.ac.at/images/AKON/AK103_034/034/full/full/0/native.jpg",
    "latitude": 37.32744,
    "longitude": 13.59351,
    "ID": "IT",
    "city": "Girgenti",
    "building": "Tempio detto della Concordia",
    "date": 1904
  },
  {
    "filename": "ak103_035.jpg",
    "URL": "https://iiif.onb.ac.at/images/AKON/AK103_035/035/full/full/0/native.jpg",
    "latitude": 37.32744,
    "longitude": 13.59351,
    "ID": "IT",
    "city": "Girgenti",
    "building": "Tempio di Castore e Polluce",
    "date": 1904
  },
  {
    "filename": "ak104_312.jpg",
    "URL": "https://iiif.onb.ac.at/images/AKON/AK104_312/312/full/full/0/native.jpg",
    "latitude": 46.34687,
    "longitude": 11.29747,
    "ID": "IT",
    "city": "Auer",
    "building": "Schloss Auer",
    "date": 1904
  },
  {
    "filename": "ak104_313.jpg",
    "URL": "https://iiif.onb.ac.at/images/AKON/AK104_313/313/full/full/0/native.jpg",
    "latitude": 46.34687,
    "longitude": 11.29747,
    "ID": "IT",
    "city": "Auer",
    "building": "Schloss Auer",
    "date": 1904
  },
  {
    "filename": "ak106_575.jpg",
    "URL": "https://iiif.onb.ac.at/images/AKON/AK106_575/575/full/full/0/native.jpg",
    "latitude": 46.69102,
    "longitude": 11.15427,
    "ID": "IT",
    "city": "Tirolo",
    "building": "Ruine Brunnenburg",
    "date": 1904
  },
  {
    "filename": "ak107_322.jpg",
    "URL": "https://iiif.onb.ac.at/images/AKON/AK107_322/322/full/full/0/native.jpg",
    "latitude": 46.66817,
    "longitude": 11.15953,
    "ID": "IT",
    "city": "Meran",
    "building": "Ruine Burgstall",
    "date": 1904
  },
  {
    "filename": "ak119_411.jpg",
    "URL": "https://iiif.onb.ac.at/images/AKON/AK119_411/411/full/full/0/native.jpg",
    "latitude": 46.49067,
    "longitude": 11.33982,
    "ID": "IT",
    "city": "Bozen",
    "building": "Haselburg",
    "date": 1904
  },
  {
    "filename": "ak023_127.jpg",
    "URL": "https://iiif.onb.ac.at/images/AKON/AK023_127/127/full/full/0/native.jpg",
    "latitude": 42.45306,
    "longitude": 18.5375,
    "ID": "ME",
    "city": "Castelnuovo",
    "building": "Kloster Savina",
    "date": 1904
  },
  {
    "filename": "ak085_144.jpg",
    "URL": "https://iiif.onb.ac.at/images/AKON/AK085_144/144/full/full/0/native.jpg",
    "latitude": 49.19528,
    "longitude": 20.21326,
    "ID": "SK",
    "city": "Lomnický štít",
    "building": "Lomnitzer Touristenhaus",
    "date": 1904
  },
  {
    "filename": "ak011_295.jpg",
    "URL": "https://iiif.onb.ac.at/images/AKON/AK011_295/295/full/full/0/native.jpg",
    "latitude": 48.10038,
    "longitude": 16.13746,
    "ID": "AT",
    "city": "Sulz im Wienerwald",
    "building": "Wasserheilanstalt",
    "date": 1905
  },
  {
    "filename": "ak020_463.jpg",
    "URL": "https://iiif.onb.ac.at/images/AKON/AK020_463/463/full/full/0/native.jpg",
    "latitude": 48.04252,
    "longitude": 15.61007,
    "ID": "AT",
    "city": "Traisen",
    "building": "Marienhof, Gasthof zur Post",
    "date": 1905
  },
  {
    "filename": "ak020_464.jpg",
    "URL": "https://iiif.onb.ac.at/images/AKON/AK020_464/464/full/full/0/native.jpg",
    "latitude": 48.04252,
    "longitude": 15.61007,
    "ID": "AT",
    "city": "Traisen",
    "building": "Walzwerk Arth. Krupp",
    "date": 1905
  },
  {
    "filename": "ak020_476.jpg",
    "URL": "https://iiif.onb.ac.at/images/AKON/AK020_476/476/full/full/0/native.jpg",
    "latitude": 48.04252,
    "longitude": 15.61007,
    "ID": "AT",
    "city": "Traisen",
    "building": "Geschoss- und Stahlwerk v. Lenz",
    "date": 1905
  },
  {
    "filename": "ak024_192.jpg",
    "URL": "https://iiif.onb.ac.at/images/AKON/AK024_192/192/full/full/0/native.jpg",
    "latitude": 48.23333,
    "longitude": 16.35,
    "ID": "AT",
    "city": "Alsergrund",
    "building": "Rossauer-Kaserne",
    "date": 1905
  },
  {
    "filename": "ak027_235.jpg",
    "URL": "https://iiif.onb.ac.at/images/AKON/AK027_235/235/full/full/0/native.jpg",
    "latitude": 47.06667,
    "longitude": 15.45,
    "ID": "AT",
    "city": "Graz",
    "building": "Starkehäuschen",
    "date": 1905
  },
  {
    "filename": "ak029_103.jpg",
    "URL": "https://iiif.onb.ac.at/images/AKON/AK029_103/103/full/full/0/native.jpg",
    "latitude": 47.31667,
    "longitude": 11.56667,
    "ID": "AT",
    "city": "Gnadenwald",
    "building": "Hotel Wiesenhof",
    "date": 1905
  },
  {
    "filename": "ak030_300.jpg",
    "URL": "https://iiif.onb.ac.at/images/AKON/AK030_300/300/full/full/0/native.jpg",
    "latitude": 47.96533,
    "longitude": 16.21359,
    "ID": "AT",
    "city": "Vöslau",
    "building": "Hôtel Witzmann",
    "date": 1905
  },
  {
    "filename": "ak030_525.jpg",
    "URL": "https://iiif.onb.ac.at/images/AKON/AK030_525/525/full/full/0/native.jpg",
    "latitude": 48.20331,
    "longitude": 16.36879,
    "ID": "AT",
    "city": "Wiener Staatsoper",
    "building": "K. k. Hof-Operntheater",
    "date": 1905
  },
  {
    "filename": "ak038_322.jpg",
    "URL": "https://iiif.onb.ac.at/images/AKON/AK038_322/322/full/full/0/native.jpg",
    "latitude": 48.20906,
    "longitude": 16.37135,
    "ID": "AT",
    "city": "Innere Stadt",
    "building": "Hôtel Metropole",
    "date": 1905
  },
  {
    "filename": "ak041_198.jpg",
    "URL": "https://iiif.onb.ac.at/images/AKON/AK041_198/198/full/full/0/native.jpg",
    "latitude": 48.23333,
    "longitude": 16.35,
    "ID": "AT",
    "city": "Alsergrund",
    "building": "Stadtbahn-Station Brigittabrücke",
    "date": 1905
  },
  {
    "filename": "ak044_387.jpg",
    "URL": "https://iiif.onb.ac.at/images/AKON/AK044_387/387/full/full/0/native.jpg",
    "latitude": 48.17381,
    "longitude": 16.28929,
    "ID": "AT",
    "city": "Lainz",
    "building": "Kirche und Versorgungshaus der Stadt Wien",
    "date": 1905
  },
  {
    "filename": "ak044_411.jpg",
    "URL": "https://iiif.onb.ac.at/images/AKON/AK044_411/411/full/full/0/native.jpg",
    "latitude": 48.23451,
    "longitude": 16.37409,
    "ID": "AT",
    "city": "Briggitenau",
    "building": "Pfarrkirche z. h. Brigitta, Amtshaus Brigittenau",
    "date": 1905
  },
  {
    "filename": "ak050_309.jpg",
    "URL": "https://iiif.onb.ac.at/images/AKON/AK050_309/309/full/full/0/native.jpg",
    "latitude": 48.10038,
    "longitude": 16.13746,
    "ID": "AT",
    "city": "Sulz im Wienerwald",
    "building": "Wasserheilanstalt",
    "date": 1905
  },
  {
    "filename": "ak060_496.jpg",
    "URL": "https://iiif.onb.ac.at/images/AKON/AK060_496/496/full/full/0/native.jpg",
    "latitude": 47.05,
    "longitude": 13.4,
    "ID": "AT",
    "city": "Maltatal",
    "building": "Jagdhaus in der Schönau",
    "date": 1905
  },
  {
    "filename": "ak062_090.jpg",
    "URL": "https://iiif.onb.ac.at/images/AKON/AK062_090/090/full/full/0/native.jpg",
    "latitude": 47.42942,
    "longitude": 11.87794,
    "ID": "AT",
    "city": "Brixlegg",
    "building": "Schloss Matzen",
    "date": 1905
  },
  {
    "filename": "ak070_187.jpg",
    "URL": "https://iiif.onb.ac.at/images/AKON/AK070_187/187/full/full/0/native.jpg",
    "latitude": 47.41694,
    "longitude": 11.87785,
    "ID": "AT",
    "city": "Reith bei Brixlegg",
    "building": "Schloss Kropfsberg",
    "date": 1905
  },
  {
    "filename": "ak071_247.jpg",
    "URL": "https://iiif.onb.ac.at/images/AKON/AK071_247/247/full/full/0/native.jpg",
    "latitude": 47.35169,
    "longitude": 11.71014,
    "ID": "AT",
    "city": "Schwaz",
    "building": "Schloss Freundsberg",
    "date": 1905
  },
  {
    "filename": "ak093_514.jpg",
    "URL": "https://iiif.onb.ac.at/images/AKON/AK093_514/514/full/full/0/native.jpg",
    "latitude": 47.03333,
    "longitude": 13.4,
    "ID": "AT",
    "city": "Gmündner Hütte",
    "building": "Gmündner Hütte",
    "date": 1905
  },
  {
    "filename": "ak103_128.jpg",
    "URL": "https://iiif.onb.ac.at/images/AKON/AK103_128/128/full/full/0/native.jpg",
    "latitude": 48.2,
    "longitude": 15.4,
    "ID": "AT",
    "city": "Loosdorf",
    "building": "Schloss Albrechtsberg",
    "date": 1905
  },
  {
    "filename": "ak116_418.jpg",
    "URL": "https://iiif.onb.ac.at/images/AKON/AK116_418/418/full/full/0/native.jpg",
    "latitude": 46.95528,
    "longitude": 14.40583,
    "ID": "AT",
    "city": "Friesach",
    "building": "Deutschordensspital",
    "date": 1905
  },
  {
    "filename": "ak122_452.jpg",
    "URL": "https://iiif.onb.ac.at/images/AKON/AK122_452/452/full/full/0/native.jpg",
    "latitude": 48.69725,
    "longitude": 15.32756,
    "ID": "AT",
    "city": "Allentsteig",
    "building": "Burg",
    "date": 1905
  },
  {
    "filename": "ak125_430.jpg",
    "URL": "https://iiif.onb.ac.at/images/AKON/AK125_430/430/full/full/0/native.jpg",
    "latitude": 46.75334,
    "longitude": 14.4532,
    "ID": "AT",
    "city": "Hochosterwitz Castle",
    "building": "Burg Hochosterwitz",
    "date": 1905
  },
  {
    "filename": "ak125_431.jpg",
    "URL": "https://iiif.onb.ac.at/images/AKON/AK125_431/431/full/full/0/native.jpg",
    "latitude": 46.75334,
    "longitude": 14.4532,
    "ID": "AT",
    "city": "Hochosterwitz Castle",
    "building": "Burg Hochosterwitz",
    "date": 1905
  },
  {
    "filename": "ak109_175.jpg",
    "URL": "https://iiif.onb.ac.at/images/AKON/AK109_175/175/full/full/0/native.jpg",
    "latitude": 46.68387,
    "longitude": 7.86638,
    "ID": "CH",
    "city": "Interlaken",
    "building": "Châlet Suisse",
    "date": 1905
  },
  {
    "filename": "ak017_490.jpg",
    "URL": "https://iiif.onb.ac.at/images/AKON/AK017_490/490/full/full/0/native.jpg",
    "latitude": 50.12033,
    "longitude": 12.35174,
    "ID": "CZ",
    "city": "Franzensbad",
    "building": "Brunnen-Versendungsgebäude Franzensqzuelle",
    "date": 1905
  },
  {
    "filename": "ak066_417.jpg",
    "URL": "https://iiif.onb.ac.at/images/AKON/AK066_417/417/full/full/0/native.jpg",
    "latitude": 50.23271,
    "longitude": 12.87117,
    "ID": "CZ",
    "city": "Karlsbad",
    "building": "Kurhaus",
    "date": 1905
  },
  {
    "filename": "ak069_016.jpg",
    "URL": "https://iiif.onb.ac.at/images/AKON/AK069_016/016/full/full/0/native.jpg",
    "latitude": 49.19522,
    "longitude": 16.60796,
    "ID": "CZ",
    "city": "Brünn",
    "building": "Jesuitenkirche",
    "date": 1905
  },
  {
    "filename": "ak109_559.jpg",
    "URL": "https://iiif.onb.ac.at/images/AKON/AK109_559/559/full/full/0/native.jpg",
    "latitude": 50.23271,
    "longitude": 12.87117,
    "ID": "CZ",
    "city": "Karlsbad",
    "building": "Englische Kirche, Hotel Bristol",
    "date": 1905
  },
  {
    "filename": "ak073_179.jpg",
    "URL": "https://iiif.onb.ac.at/images/AKON/AK073_179/179/full/full/0/native.jpg",
    "latitude": 50.72724,
    "longitude": 12.48839,
    "ID": "DE",
    "city": "Zwickau",
    "building": "Schwanschloss",
    "date": 1905
  },
  {
    "filename": "ak073_212.jpg",
    "URL": "https://iiif.onb.ac.at/images/AKON/AK073_212/212/full/full/0/native.jpg",
    "latitude": 51.33962,
    "longitude": 12.37129,
    "ID": "DE",
    "city": "Leipzig",
    "building": "Deutsches Buchhändler-Haus",
    "date": 1905
  },
  {
    "filename": "ak073_280.jpg",
    "URL": "https://iiif.onb.ac.at/images/AKON/AK073_280/280/full/full/0/native.jpg",
    "latitude": 50.9807,
    "longitude": 10.31522,
    "ID": "DE",
    "city": "Eisenach",
    "building": "Joh. Seb. Bach's Geburtshaus",
    "date": 1905
  },
  {
    "filename": "ak073_499.jpg",
    "URL": "https://iiif.onb.ac.at/images/AKON/AK073_499/499/full/full/0/native.jpg",
    "latitude": 49.87167,
    "longitude": 8.65027,
    "ID": "DE",
    "city": "Darmstadt",
    "building": "Großherzogl. Hoftheater",
    "date": 1905
  },
  {
    "filename": "ak085_502.jpg",
    "URL": "https://iiif.onb.ac.at/images/AKON/AK085_502/502/full/full/0/native.jpg",
    "latitude": 49.97554,
    "longitude": 7.88007,
    "ID": "DE",
    "city": "Ruine Ehrenfels",
    "building": "Ruine Ehrenfels, Mäuseturm",
    "date": 1905
  },
  {
    "filename": "ak087_274.jpg",
    "URL": "https://iiif.onb.ac.at/images/AKON/AK087_274/274/full/full/0/native.jpg",
    "latitude": 51.33921,
    "longitude": 6.58615,
    "ID": "DE",
    "city": "Krefeld",
    "building": "Amtsgericht",
    "date": 1905
  },
  {
    "filename": "ak087_584.jpg",
    "URL": "https://iiif.onb.ac.at/images/AKON/AK087_584/584/full/full/0/native.jpg",
    "latitude": 51.33962,
    "longitude": 12.37129,
    "ID": "DE",
    "city": "Leipzig",
    "building": "Universität",
    "date": 1905
  },
  {
    "filename": "ak087_601.jpg",
    "URL": "https://iiif.onb.ac.at/images/AKON/AK087_601/601/full/full/0/native.jpg",
    "latitude": 51.33962,
    "longitude": 12.37129,
    "ID": "DE",
    "city": "Leipzig",
    "building": "Neues Theater",
    "date": 1905
  },
  {
    "filename": "ak093_411.jpg",
    "URL": "https://iiif.onb.ac.at/images/AKON/AK093_411/411/full/full/0/native.jpg",
    "latitude": 51.53443,
    "longitude": 9.93228,
    "ID": "DE",
    "city": "Göttingen",
    "building": "Rathaus",
    "date": 1905
  },
  {
    "filename": "ak093_551.jpg",
    "URL": "https://iiif.onb.ac.at/images/AKON/AK093_551/551/full/full/0/native.jpg",
    "latitude": 52.37052,
    "longitude": 9.73322,
    "ID": "DE",
    "city": "Hannover",
    "building": "Städt. Badehalle",
    "date": 1905
  },
  {
    "filename": "ak093_559.jpg",
    "URL": "https://iiif.onb.ac.at/images/AKON/AK093_559/559/full/full/0/native.jpg",
    "latitude": 52.37052,
    "longitude": 9.73322,
    "ID": "DE",
    "city": "Hannover",
    "building": "Marktkirche",
    "date": 1905
  },
  {
    "filename": "ak093_578.jpg",
    "URL": "https://iiif.onb.ac.at/images/AKON/AK093_578/578/full/full/0/native.jpg",
    "latitude": 52.10397,
    "longitude": 9.35623,
    "ID": "DE",
    "city": "Hameln",
    "building": "Pfortmühle",
    "date": 1905
  },
  {
    "filename": "ak094_378.jpg",
    "URL": "https://iiif.onb.ac.at/images/AKON/AK094_378/378/full/full/0/native.jpg",
    "latitude": 49.4105,
    "longitude": 8.71602,
    "ID": "DE",
    "city": "Heidelberger Schloss",
    "building": "Heidelberger Schloss",
    "date": 1905
  },
  {
    "filename": "ak094_384.jpg",
    "URL": "https://iiif.onb.ac.at/images/AKON/AK094_384/384/full/full/0/native.jpg",
    "latitude": 48.35149,
    "longitude": 8.96317,
    "ID": "DE",
    "city": "Hechingen",
    "building": "Burg Hohenzollern",
    "date": 1905
  },
  {
    "filename": "ak096_401.jpg",
    "URL": "https://iiif.onb.ac.at/images/AKON/AK096_401/401/full/full/0/native.jpg",
    "latitude": 49.96675,
    "longitude": 7.8992,
    "ID": "DE",
    "city": "Bingen am Rhein",
    "building": "St. Rochuskapelle",
    "date": 1905
  },
  {
    "filename": "ak097_345.jpg",
    "URL": "https://iiif.onb.ac.at/images/AKON/AK097_345/345/full/full/0/native.jpg",
    "latitude": 53.07516,
    "longitude": 8.80777,
    "ID": "DE",
    "city": "Bremen",
    "building": "Parkhaus",
    "date": 1905
  },
  {
    "filename": "ak102_507.jpg",
    "URL": "https://iiif.onb.ac.at/images/AKON/AK102_507/507/full/full/0/native.jpg",
    "latitude": 50.76749,
    "longitude": 6.07278,
    "ID": "DE",
    "city": "domicil Residenz Hotel Bad Aachen",
    "building": "Theater, Kaiser Wilhelm Denkmal",
    "date": 1905
  },
  {
    "filename": "ak105_293.jpg",
    "URL": "https://iiif.onb.ac.at/images/AKON/AK105_293/293/full/full/0/native.jpg",
    "latitude": 51.88268,
    "longitude": 10.56157,
    "ID": "DE",
    "city": "Bad Harzburg",
    "building": "Kurhaus",
    "date": 1905
  },
  {
    "filename": "ak109_357.jpg",
    "URL": "https://iiif.onb.ac.at/images/AKON/AK109_357/357/full/full/0/native.jpg",
    "latitude": 51.99607,
    "longitude": 13.07979,
    "ID": "DE",
    "city": "Jüterbog",
    "building": "Abshof-Planeberg",
    "date": 1905
  },
  {
    "filename": "ak110_308.jpg",
    "URL": "https://iiif.onb.ac.at/images/AKON/AK110_308/308/full/full/0/native.jpg",
    "latitude": 50.93333,
    "longitude": 6.95,
    "ID": "DE",
    "city": "Köln",
    "building": "St. Maria im Kapitol",
    "date": 1905
  },
  {
    "filename": "ak110_334.jpg",
    "URL": "https://iiif.onb.ac.at/images/AKON/AK110_334/334/full/full/0/native.jpg",
    "latitude": 50.93333,
    "longitude": 6.95,
    "ID": "DE",
    "city": "Köln",
    "building": "Leystapel",
    "date": 1905
  },
  {
    "filename": "ak118_290.jpg",
    "URL": "https://iiif.onb.ac.at/images/AKON/AK118_290/290/full/full/0/native.jpg",
    "latitude": 52.41642,
    "longitude": 13.58039,
    "ID": "DE",
    "city": "Grünau",
    "building": "Gesellschaftshaus",
    "date": 1905
  },
  {
    "filename": "ak119_109.jpg",
    "URL": "https://iiif.onb.ac.at/images/AKON/AK119_109/109/full/full/0/native.jpg",
    "latitude": 51.5,
    "longitude": 12,
    "ID": "DE",
    "city": "Halle",
    "building": "Physikalisches Institut",
    "date": 1905
  },
  {
    "filename": "ak060_232.jpg",
    "URL": "https://iiif.onb.ac.at/images/AKON/AK060_232/232/full/full/0/native.jpg",
    "latitude": 46.61209,
    "longitude": 11.15653,
    "ID": "IT",
    "city": "Lana",
    "building": "Schloss Leonburg",
    "date": 1905
  },
  {
    "filename": "ak060_267.jpg",
    "URL": "https://iiif.onb.ac.at/images/AKON/AK060_267/267/full/full/0/native.jpg",
    "latitude": 46.53216,
    "longitude": 11.24689,
    "ID": "IT",
    "city": "Terlan",
    "building": "Edelsitz Liebeneich",
    "date": 1905
  },
  {
    "filename": "ak060_492.jpg",
    "URL": "https://iiif.onb.ac.at/images/AKON/AK060_492/492/full/full/0/native.jpg",
    "latitude": 46.68791,
    "longitude": 10.54655,
    "ID": "IT",
    "city": "Mals",
    "building": "Veste Fröhlichsburg",
    "date": 1905
  },
  {
    "filename": "ak060_498.jpg",
    "URL": "https://iiif.onb.ac.at/images/AKON/AK060_498/498/full/full/0/native.jpg",
    "latitude": 46.20258,
    "longitude": 10.57119,
    "ID": "IT",
    "city": "Rifugio Mandrón \"Città di Trento",
    "building": "Rifugio del Mandron",
    "date": 1905
  },
  {
    "filename": "ak060_532.jpg",
    "URL": "https://iiif.onb.ac.at/images/AKON/AK060_532/532/full/full/0/native.jpg",
    "latitude": 46.49067,
    "longitude": 11.33982,
    "ID": "IT",
    "city": "Bozen",
    "building": "Schloss Maretsch",
    "date": 1905
  },
  {
    "filename": "ak061_049.jpg",
    "URL": "https://iiif.onb.ac.at/images/AKON/AK061_049/049/full/full/0/native.jpg",
    "latitude": 46.61641,
    "longitude": 10.85726,
    "ID": "IT",
    "city": "Latsch",
    "building": "Schloss Obermontani",
    "date": 1905
  },
  {
    "filename": "ak061_307.jpg",
    "URL": "https://iiif.onb.ac.at/images/AKON/AK061_307/307/full/full/0/native.jpg",
    "latitude": 46.71503,
    "longitude": 11.65598,
    "ID": "IT",
    "city": "Brixen",
    "building": "Ruine Pfeffersburg",
    "date": 1905
  },
  {
    "filename": "ak061_308.jpg",
    "URL": "https://iiif.onb.ac.at/images/AKON/AK061_308/308/full/full/0/native.jpg",
    "latitude": 46.71503,
    "longitude": 11.65598,
    "ID": "IT",
    "city": "Brixen",
    "building": "Ruine Pfeffersburg",
    "date": 1905
  },
  {
    "filename": "ak061_310.jpg",
    "URL": "https://iiif.onb.ac.at/images/AKON/AK061_310/310/full/full/0/native.jpg",
    "latitude": 46.66817,
    "longitude": 11.15953,
    "ID": "IT",
    "city": "Meran",
    "building": "Edelsitz Pflanzenstein",
    "date": 1905
  },
  {
    "filename": "ak061_416.jpg",
    "URL": "https://iiif.onb.ac.at/images/AKON/AK061_416/416/full/full/0/native.jpg",
    "latitude": 46.66817,
    "longitude": 11.15953,
    "ID": "IT",
    "city": "Meran",
    "building": "Schloss Planta",
    "date": 1905
  },
  {
    "filename": "ak061_417.jpg",
    "URL": "https://iiif.onb.ac.at/images/AKON/AK061_417/417/full/full/0/native.jpg",
    "latitude": 46.68113,
    "longitude": 11.12572,
    "ID": "IT",
    "city": "Algund",
    "building": "Schloss Plars",
    "date": 1905
  },
  {
    "filename": "ak061_418.jpg",
    "URL": "https://iiif.onb.ac.at/images/AKON/AK061_418/418/full/full/0/native.jpg",
    "latitude": 46.68113,
    "longitude": 11.12572,
    "ID": "IT",
    "city": "Algund",
    "building": "Schloss Plars",
    "date": 1905
  },
  {
    "filename": "ak062_093.jpg",
    "URL": "https://iiif.onb.ac.at/images/AKON/AK062_093/093/full/full/0/native.jpg",
    "latitude": 46.66817,
    "longitude": 11.15953,
    "ID": "IT",
    "city": "Meran",
    "building": "Schloss Maur",
    "date": 1905
  },
  {
    "filename": "ak062_096.jpg",
    "URL": "https://iiif.onb.ac.at/images/AKON/AK062_096/096/full/full/0/native.jpg",
    "latitude": 46.53216,
    "longitude": 11.24689,
    "ID": "IT",
    "city": "Terlan",
    "building": "Ruine Neuhaus",
    "date": 1905
  },
  {
    "filename": "ak062_098.jpg",
    "URL": "https://iiif.onb.ac.at/images/AKON/AK062_098/098/full/full/0/native.jpg",
    "latitude": 46.53216,
    "longitude": 11.24689,
    "ID": "IT",
    "city": "Terlan",
    "building": "Ruine Maultasch",
    "date": 1905
  },
  {
    "filename": "ak062_112.jpg",
    "URL": "https://iiif.onb.ac.at/images/AKON/AK062_112/112/full/full/0/native.jpg",
    "latitude": 46.66817,
    "longitude": 11.15953,
    "ID": "IT",
    "city": "Meran",
    "building": "Ruine Mayenburg",
    "date": 1905
  },
  {
    "filename": "ak062_157.jpg",
    "URL": "https://iiif.onb.ac.at/images/AKON/AK062_157/157/full/full/0/native.jpg",
    "latitude": 46.66817,
    "longitude": 11.15953,
    "ID": "IT",
    "city": "Meran",
    "building": "Burg Meran",
    "date": 1905
  },
  {
    "filename": "ak062_320.jpg",
    "URL": "https://iiif.onb.ac.at/images/AKON/AK062_320/320/full/full/0/native.jpg",
    "latitude": 46.66817,
    "longitude": 11.15953,
    "ID": "IT",
    "city": "Meran",
    "building": "Edelsitz Montelbon",
    "date": 1905
  },
  {
    "filename": "ak062_321.jpg",
    "URL": "https://iiif.onb.ac.at/images/AKON/AK062_321/321/full/full/0/native.jpg",
    "latitude": 46.66817,
    "longitude": 11.15953,
    "ID": "IT",
    "city": "Meran",
    "building": "Edelsitz Montelbon",
    "date": 1905
  },
  {
    "filename": "ak063_395.jpg",
    "URL": "https://iiif.onb.ac.at/images/AKON/AK063_395/395/full/full/0/native.jpg",
    "latitude": 46.78333,
    "longitude": 10.78333,
    "ID": "IT",
    "city": "Hochjoch",
    "building": "Hochjoch-Hospiz",
    "date": 1905
  },
  {
    "filename": "ak063_580.jpg",
    "URL": "https://iiif.onb.ac.at/images/AKON/AK063_580/580/full/full/0/native.jpg",
    "latitude": 46.49067,
    "longitude": 11.33982,
    "ID": "IT",
    "city": "Bozen",
    "building": "Schloss Haselburg",
    "date": 1905
  },
  {
    "filename": "ak064_170.jpg",
    "URL": "https://iiif.onb.ac.at/images/AKON/AK064_170/170/full/full/0/native.jpg",
    "latitude": 46.66817,
    "longitude": 11.15953,
    "ID": "IT",
    "city": "Meran",
    "building": "Schloss Goyen",
    "date": 1905
  },
  {
    "filename": "ak066_163.jpg",
    "URL": "https://iiif.onb.ac.at/images/AKON/AK066_163/163/full/full/0/native.jpg",
    "latitude": 46.81282,
    "longitude": 11.24577,
    "ID": "IT",
    "city": "St. Leonhard in Passeier",
    "building": "Ruine Jaufenburg",
    "date": 1905
  },
  {
    "filename": "ak066_251.jpg",
    "URL": "https://iiif.onb.ac.at/images/AKON/AK066_251/251/full/full/0/native.jpg",
    "latitude": 46.65185,
    "longitude": 10.96711,
    "ID": "IT",
    "city": "Juvale",
    "building": "Burg Juval",
    "date": 1905
  },
  {
    "filename": "ak066_456.jpg",
    "URL": "https://iiif.onb.ac.at/images/AKON/AK066_456/456/full/full/0/native.jpg",
    "latitude": 46.62832,
    "longitude": 10.90666,
    "ID": "IT",
    "city": "Kastelbell-Tschars",
    "building": "Schloss Kastelbell",
    "date": 1905
  },
  {
    "filename": "ak066_462.jpg",
    "URL": "https://iiif.onb.ac.at/images/AKON/AK066_462/462/full/full/0/native.jpg",
    "latitude": 46.66817,
    "longitude": 11.15953,
    "ID": "IT",
    "city": "Meran",
    "building": "Schloss Kasten",
    "date": 1905
  },
  {
    "filename": "ak066_481.jpg",
    "URL": "https://iiif.onb.ac.at/images/AKON/AK066_481/481/full/full/0/native.jpg",
    "latitude": 46.66817,
    "longitude": 11.15953,
    "ID": "IT",
    "city": "Meran",
    "building": "Schloss Katzenzungen",
    "date": 1905
  },
  {
    "filename": "ak067_049.jpg",
    "URL": "https://iiif.onb.ac.at/images/AKON/AK067_049/049/full/full/0/native.jpg",
    "latitude": 46.64121,
    "longitude": 11.35411,
    "ID": "IT",
    "city": "Sarnthein",
    "building": "Schloss Reineck",
    "date": 1905
  },
  {
    "filename": "ak067_130.jpg",
    "URL": "https://iiif.onb.ac.at/images/AKON/AK067_130/130/full/full/0/native.jpg",
    "latitude": 46.66817,
    "longitude": 11.15953,
    "ID": "IT",
    "city": "Meran",
    "building": "Schloss Rosenstein",
    "date": 1905
  },
  {
    "filename": "ak067_156.jpg",
    "URL": "https://iiif.onb.ac.at/images/AKON/AK067_156/156/full/full/0/native.jpg",
    "latitude": 46.66817,
    "longitude": 11.15953,
    "ID": "IT",
    "city": "Meran",
    "building": "Schloss Rundeck",
    "date": 1905
  },
  {
    "filename": "ak067_157.jpg",
    "URL": "https://iiif.onb.ac.at/images/AKON/AK067_157/157/full/full/0/native.jpg",
    "latitude": 46.49067,
    "longitude": 11.33982,
    "ID": "IT",
    "city": "Bozen",
    "building": "Schloss Runkelstein",
    "date": 1905
  },
  {
    "filename": "ak068_145.jpg",
    "URL": "https://iiif.onb.ac.at/images/AKON/AK068_145/145/full/full/0/native.jpg",
    "latitude": 46.66817,
    "longitude": 11.15953,
    "ID": "IT",
    "city": "Meran",
    "building": "Edelsitz Angersheim",
    "date": 1905
  },
  {
    "filename": "ak069_192.jpg",
    "URL": "https://iiif.onb.ac.at/images/AKON/AK069_192/192/full/full/0/native.jpg",
    "latitude": 46.66524,
    "longitude": 10.58345,
    "ID": "IT",
    "city": "Schluderns",
    "building": "Schloss Churburg",
    "date": 1905
  },
  {
    "filename": "ak069_200.jpg",
    "URL": "https://iiif.onb.ac.at/images/AKON/AK069_200/200/full/full/0/native.jpg",
    "latitude": 46.64801,
    "longitude": 11.00129,
    "ID": "IT",
    "city": "Naturns",
    "building": "Schloss Dornsberg",
    "date": 1905
  },
  {
    "filename": "ak070_295.jpg",
    "URL": "https://iiif.onb.ac.at/images/AKON/AK070_295/295/full/full/0/native.jpg",
    "latitude": 46.66817,
    "longitude": 11.15953,
    "ID": "IT",
    "city": "Meran",
    "building": "Schloss Labers",
    "date": 1905
  },
  {
    "filename": "ak070_310.jpg",
    "URL": "https://iiif.onb.ac.at/images/AKON/AK070_310/310/full/full/0/native.jpg",
    "latitude": 46.55394,
    "longitude": 11.17933,
    "ID": "IT",
    "city": "Prissiano",
    "building": "Schloss Wehrburg",
    "date": 1905
  },
  {
    "filename": "ak071_028.jpg",
    "URL": "https://iiif.onb.ac.at/images/AKON/AK071_028/028/full/full/0/native.jpg",
    "latitude": 46.55394,
    "longitude": 11.17933,
    "ID": "IT",
    "city": "Prissiano",
    "building": "Schloss Fahlburg",
    "date": 1905
  },
  {
    "filename": "ak071_159.jpg",
    "URL": "https://iiif.onb.ac.at/images/AKON/AK071_159/159/full/full/0/native.jpg",
    "latitude": 46.68791,
    "longitude": 10.54655,
    "ID": "IT",
    "city": "Mals",
    "building": "Schloss Fürstenberg",
    "date": 1905
  },
  {
    "filename": "ak071_368.jpg",
    "URL": "https://iiif.onb.ac.at/images/AKON/AK071_368/368/full/full/0/native.jpg",
    "latitude": 46.45472,
    "longitude": 11.26178,
    "ID": "IT",
    "city": "Eppan an der Weinstraße",
    "building": "Schloss Gandegg",
    "date": 1905
  },
  {
    "filename": "ak071_591.jpg",
    "URL": "https://iiif.onb.ac.at/images/AKON/AK071_591/591/full/full/0/native.jpg",
    "latitude": 46.66817,
    "longitude": 11.15953,
    "ID": "IT",
    "city": "Meran",
    "building": "Schloss Rametz",
    "date": 1905
  },
  {
    "filename": "ak072_422.jpg",
    "URL": "https://iiif.onb.ac.at/images/AKON/AK072_422/422/full/full/0/native.jpg",
    "latitude": 46.66817,
    "longitude": 11.15953,
    "ID": "IT",
    "city": "Meran",
    "building": "Schloss Trautmannstorff",
    "date": 1905
  },
  {
    "filename": "ak072_504.jpg",
    "URL": "https://iiif.onb.ac.at/images/AKON/AK072_504/504/full/full/0/native.jpg",
    "latitude": 46.60688,
    "longitude": 10.82273,
    "ID": "IT",
    "city": "Morter",
    "building": "Schloss Untermontani",
    "date": 1905
  },
  {
    "filename": "ak072_536.jpg",
    "URL": "https://iiif.onb.ac.at/images/AKON/AK072_536/536/full/full/0/native.jpg",
    "latitude": 46.66817,
    "longitude": 11.15953,
    "ID": "IT",
    "city": "Meran",
    "building": "Schloss Vernaun",
    "date": 1905
  },
  {
    "filename": "ak075_480.jpg",
    "URL": "https://iiif.onb.ac.at/images/AKON/AK075_480/480/full/full/0/native.jpg",
    "latitude": 46.49067,
    "longitude": 11.33982,
    "ID": "IT",
    "city": "Bozen",
    "building": "Schloss Klebenstein",
    "date": 1905
  },
  {
    "filename": "ak075_536.jpg",
    "URL": "https://iiif.onb.ac.at/images/AKON/AK075_536/536/full/full/0/native.jpg",
    "latitude": 46.66817,
    "longitude": 11.15953,
    "ID": "IT",
    "city": "Meran",
    "building": "Schloss Knillenberg",
    "date": 1905
  },
  {
    "filename": "ak092_215.jpg",
    "URL": "https://iiif.onb.ac.at/images/AKON/AK092_215/215/full/full/0/native.jpg",
    "latitude": 46.45472,
    "longitude": 11.26178,
    "ID": "IT",
    "city": "Eppan an der Weinstraße",
    "building": "Edelsitz Englar",
    "date": 1905
  },
  {
    "filename": "ak092_216.jpg",
    "URL": "https://iiif.onb.ac.at/images/AKON/AK092_216/216/full/full/0/native.jpg",
    "latitude": 46.45472,
    "longitude": 11.26178,
    "ID": "IT",
    "city": "Eppan an der Weinstraße",
    "building": "Edelsitz Englar",
    "date": 1905
  },
  {
    "filename": "ak092_467.jpg",
    "URL": "https://iiif.onb.ac.at/images/AKON/AK092_467/467/full/full/0/native.jpg",
    "latitude": 46.6703,
    "longitude": 11.1597,
    "ID": "IT",
    "city": "Castel Fragsburg",
    "building": "Fragsburg",
    "date": 1905
  },
  {
    "filename": "ak092_468.jpg",
    "URL": "https://iiif.onb.ac.at/images/AKON/AK092_468/468/full/full/0/native.jpg",
    "latitude": 46.6703,
    "longitude": 11.1597,
    "ID": "IT",
    "city": "Castel Fragsburg",
    "building": "Fragsburg",
    "date": 1905
  },
  {
    "filename": "ak092_469.jpg",
    "URL": "https://iiif.onb.ac.at/images/AKON/AK092_469/469/full/full/0/native.jpg",
    "latitude": 46.6703,
    "longitude": 11.1597,
    "ID": "IT",
    "city": "Castel Fragsburg",
    "building": "Fragsburg",
    "date": 1905
  },
  {
    "filename": "ak097_263.jpg",
    "URL": "https://iiif.onb.ac.at/images/AKON/AK097_263/263/full/full/0/native.jpg",
    "latitude": 46.61209,
    "longitude": 11.15653,
    "ID": "IT",
    "city": "Lana",
    "building": "Schloss Braunsberg",
    "date": 1905
  },
  {
    "filename": "ak097_358.jpg",
    "URL": "https://iiif.onb.ac.at/images/AKON/AK097_358/358/full/full/0/native.jpg",
    "latitude": 46.00576,
    "longitude": 11.27304,
    "ID": "IT",
    "city": "Brenta",
    "building": "Rifugio della Tosa",
    "date": 1905
  },
  {
    "filename": "ak097_359.jpg",
    "URL": "https://iiif.onb.ac.at/images/AKON/AK097_359/359/full/full/0/native.jpg",
    "latitude": 46.21494,
    "longitude": 10.9008,
    "ID": "IT",
    "city": "Rifugio Stoppani",
    "building": "Rifugio Stoppani",
    "date": 1905
  },
  {
    "filename": "ak097_367.jpg",
    "URL": "https://iiif.onb.ac.at/images/AKON/AK097_367/367/full/full/0/native.jpg",
    "latitude": 46.1841,
    "longitude": 11.80228,
    "ID": "IT",
    "city": "Bedole",
    "building": "Rifugio Bolognini",
    "date": 1905
  },
  {
    "filename": "ak097_503.jpg",
    "URL": "https://iiif.onb.ac.at/images/AKON/AK097_503/503/full/full/0/native.jpg",
    "latitude": 46.71503,
    "longitude": 11.65598,
    "ID": "IT",
    "city": "Brixen",
    "building": "Lasserhaus",
    "date": 1905
  },
  {
    "filename": "ak100_092.jpg",
    "URL": "https://iiif.onb.ac.at/images/AKON/AK100_092/092/full/full/0/native.jpg",
    "latitude": 46.30651,
    "longitude": 10.73757,
    "ID": "IT",
    "city": "Ossana",
    "building": "Castello di Ossana",
    "date": 1905
  },
  {
    "filename": "ak106_577.jpg",
    "URL": "https://iiif.onb.ac.at/images/AKON/AK106_577/577/full/full/0/native.jpg",
    "latitude": 46.69102,
    "longitude": 11.15427,
    "ID": "IT",
    "city": "Tirolo",
    "building": "Schloss Brunnenburg",
    "date": 1905
  },
  {
    "filename": "ak122_460.jpg",
    "URL": "https://iiif.onb.ac.at/images/AKON/AK122_460/460/full/full/0/native.jpg",
    "latitude": 46.65262,
    "longitude": 11.14546,
    "ID": "IT",
    "city": "Marling",
    "building": "Eggerhof",
    "date": 1905
  },
  {
    "filename": "ak095_502.jpg",
    "URL": "https://iiif.onb.ac.at/images/AKON/AK095_502/502/full/full/0/native.jpg",
    "latitude": 60.3448,
    "longitude": 5.35088,
    "ID": "NO",
    "city": "Fantoft",
    "building": "Fantoft",
    "date": 1905
  },
  {
    "filename": "ak098_536.jpg",
    "URL": "https://iiif.onb.ac.at/images/AKON/AK098_536/536/full/full/0/native.jpg",
    "latitude": 60.62296,
    "longitude": 6.42286,
    "ID": "NO",
    "city": "Voss",
    "building": "Fleischers Hotel",
    "date": 1905
  },
  {
    "filename": "ak020_435.jpg",
    "URL": "https://iiif.onb.ac.at/images/AKON/AK020_435/435/full/full/0/native.jpg",
    "latitude": 49.67432,
    "longitude": 20.07992,
    "ID": "PL",
    "city": "Mszana Dolna",
    "building": "Fabryka Konserw. C. Warhanka",
    "date": 1905
  },
  {
    "filename": "ak028_088.jpg",
    "URL": "https://iiif.onb.ac.at/images/AKON/AK028_088/088/full/full/0/native.jpg",
    "latitude": 50.06143,
    "longitude": 19.93658,
    "ID": "PL",
    "city": "Kraków",
    "building": "Sukiennice",
    "date": 1905
  },
  {
    "filename": "ak042_312.jpg",
    "URL": "https://iiif.onb.ac.at/images/AKON/AK042_312/312/full/full/0/native.jpg",
    "latitude": 50.80352,
    "longitude": 16.25655,
    "ID": "PL",
    "city": "Szczawno-Zdrój",
    "building": "Gerhart Hauptmann's Geburtshaus",
    "date": 1905
  },
  {
    "filename": "ak086_320.jpg",
    "URL": "https://iiif.onb.ac.at/images/AKON/AK086_320/320/full/full/0/native.jpg",
    "latitude": 49.16667,
    "longitude": 20,
    "ID": "SK",
    "city": "Hohe Tatra",
    "building": "Schlesierhaus",
    "date": 1905
  },
  {
    "filename": "ak001_062.jpg",
    "URL": "https://iiif.onb.ac.at/images/AKON/AK001_062/062/full/full/0/native.jpg",
    "latitude": 48.06833,
    "longitude": 16.35607,
    "ID": "AT",
    "city": "Laxenburg",
    "building": "Laxenburg",
    "date": 1906
  },
  {
    "filename": "ak001_178.jpg",
    "URL": "https://iiif.onb.ac.at/images/AKON/AK001_178/178/full/full/0/native.jpg",
    "latitude": 47.18333,
    "longitude": 10.98333,
    "ID": "AT",
    "city": "Längental",
    "building": "Altes Bauernhaus",
    "date": 1906
  },
  {
    "filename": "ak002_367.jpg",
    "URL": "https://iiif.onb.ac.at/images/AKON/AK002_367/367/full/full/0/native.jpg",
    "latitude": 47.98521,
    "longitude": 15.02552,
    "ID": "AT",
    "city": "Gresten",
    "building": "Schlossalpe, Schwarzenberg",
    "date": 1906
  },
  {
    "filename": "ak003_466.jpg",
    "URL": "https://iiif.onb.ac.at/images/AKON/AK003_466/466/full/full/0/native.jpg",
    "latitude": 48.13425,
    "longitude": 16.90624,
    "ID": "AT",
    "city": "Bad Deutsch-Altenburg",
    "building": "Museum Carnuntum",
    "date": 1906
  },
  {
    "filename": "ak003_491.jpg",
    "URL": "https://iiif.onb.ac.at/images/AKON/AK003_491/491/full/full/0/native.jpg",
    "latitude": 48.00543,
    "longitude": 16.23264,
    "ID": "AT",
    "city": "Baden bei Wien",
    "building": "K. k. Wohltätigkeitshaus",
    "date": 1906
  },
  {
    "filename": "ak003_579.jpg",
    "URL": "https://iiif.onb.ac.at/images/AKON/AK003_579/579/full/full/0/native.jpg",
    "latitude": 47.73424,
    "longitude": 15.79199,
    "ID": "AT",
    "city": "Kaiserbrunn",
    "building": "Hotel Kaiserbrunn",
    "date": 1906
  },
  {
    "filename": "ak004_121.jpg",
    "URL": "https://iiif.onb.ac.at/images/AKON/AK004_121/121/full/full/0/native.jpg",
    "latitude": 48.19516,
    "longitude": 16.11909,
    "ID": "AT",
    "city": "Tullnerbach",
    "building": "Norbertinum",
    "date": 1906
  },
  {
    "filename": "ak004_184.jpg",
    "URL": "https://iiif.onb.ac.at/images/AKON/AK004_184/184/full/full/0/native.jpg",
    "latitude": 47.96004,
    "longitude": 14.77361,
    "ID": "AT",
    "city": "Waidhofen an der Ybbs",
    "building": "Schloss",
    "date": 1906
  },
  {
    "filename": "ak004_214.jpg",
    "URL": "https://iiif.onb.ac.at/images/AKON/AK004_214/214/full/full/0/native.jpg",
    "latitude": 48.20563,
    "longitude": 16.36469,
    "ID": "AT",
    "city": "Hofburg Palace",
    "building": "Neue k. k. Hofburg",
    "date": 1906
  },
  {
    "filename": "ak004_222.jpg",
    "URL": "https://iiif.onb.ac.at/images/AKON/AK004_222/222/full/full/0/native.jpg",
    "latitude": 48.20906,
    "longitude": 16.37135,
    "ID": "AT",
    "city": "Innere Stadt",
    "building": "K. k. Ministerium des k. k. Hauses und des Aeusseren",
    "date": 1906
  },
  {
    "filename": "ak004_424.jpg",
    "URL": "https://iiif.onb.ac.at/images/AKON/AK004_424/424/full/full/0/native.jpg",
    "latitude": 48.30521,
    "longitude": 16.32522,
    "ID": "AT",
    "city": "Klosterneuburg",
    "building": "Bahnhof Klosterneuburg-Weidling",
    "date": 1906
  },
  {
    "filename": "ak005_334.jpg",
    "URL": "https://iiif.onb.ac.at/images/AKON/AK005_334/334/full/full/0/native.jpg",
    "latitude": 48.08605,
    "longitude": 16.28921,
    "ID": "AT",
    "city": "Mödling",
    "building": "Pfarrkirche z. h. Othmar",
    "date": 1906
  },
  {
    "filename": "ak007_234.jpg",
    "URL": "https://iiif.onb.ac.at/images/AKON/AK007_234/234/full/full/0/native.jpg",
    "latitude": 47.78333,
    "longitude": 15.78333,
    "ID": "AT",
    "city": "Schneeberg",
    "building": "Sparbacher-Hütte",
    "date": 1906
  },
  {
    "filename": "ak008_070.jpg",
    "URL": "https://iiif.onb.ac.at/images/AKON/AK008_070/070/full/full/0/native.jpg",
    "latitude": 48.18494,
    "longitude": 16.31229,
    "ID": "AT",
    "city": "Schloß Schönbrunn",
    "building": "Palmenhaus",
    "date": 1906
  },
  {
    "filename": "ak008_084.jpg",
    "URL": "https://iiif.onb.ac.at/images/AKON/AK008_084/084/full/full/0/native.jpg",
    "latitude": 47.96667,
    "longitude": 16.6,
    "ID": "AT",
    "city": "Mannersdorf am Leithagebirge",
    "building": "Filztuch-Fabrik von Hutter & Schrantz",
    "date": 1906
  },
  {
    "filename": "ak008_085.jpg",
    "URL": "https://iiif.onb.ac.at/images/AKON/AK008_085/085/full/full/0/native.jpg",
    "latitude": 47.96667,
    "longitude": 16.6,
    "ID": "AT",
    "city": "Mannersdorf am Leithagebirge",
    "building": "Filztuch-Fabrik von Hutter & Schrantz",
    "date": 1906
  },
  {
    "filename": "ak008_440.jpg",
    "URL": "https://iiif.onb.ac.at/images/AKON/AK008_440/440/full/full/0/native.jpg",
    "latitude": 47.6247,
    "longitude": 15.1611,
    "ID": "AT",
    "city": "Hochschwab",
    "building": "Hochschwab",
    "date": 1906
  },
  {
    "filename": "ak009_036.jpg",
    "URL": "https://iiif.onb.ac.at/images/AKON/AK009_036/036/full/full/0/native.jpg",
    "latitude": 47.91839,
    "longitude": 13.79933,
    "ID": "AT",
    "city": "Gmunden",
    "building": "Restaurant Hois`n",
    "date": 1906
  },
  {
    "filename": "ak009_160.jpg",
    "URL": "https://iiif.onb.ac.at/images/AKON/AK009_160/160/full/full/0/native.jpg",
    "latitude": 47.43333,
    "longitude": 12.53333,
    "ID": "AT",
    "city": "Wildseeloder",
    "building": "Schutzhaus d. A. V. S. Fieberbrunn",
    "date": 1906
  },
  {
    "filename": "ak009_241.jpg",
    "URL": "https://iiif.onb.ac.at/images/AKON/AK009_241/241/full/full/0/native.jpg",
    "latitude": 47.9628,
    "longitude": 16.19368,
    "ID": "AT",
    "city": "Gainfarn",
    "building": "Forsthaus",
    "date": 1906
  },
  {
    "filename": "ak009_307.jpg",
    "URL": "https://iiif.onb.ac.at/images/AKON/AK009_307/307/full/full/0/native.jpg",
    "latitude": 47.66667,
    "longitude": 16.13333,
    "ID": "AT",
    "city": "Gleissenfeld",
    "building": "Ruine Türkensturz",
    "date": 1906
  },
  {
    "filename": "ak009_317.jpg",
    "URL": "https://iiif.onb.ac.at/images/AKON/AK009_317/317/full/full/0/native.jpg",
    "latitude": 47.26266,
    "longitude": 11.39454,
    "ID": "AT",
    "city": "Innsbruck",
    "building": "Franziskanerkirche",
    "date": 1906
  },
  {
    "filename": "ak010_337.jpg",
    "URL": "https://iiif.onb.ac.at/images/AKON/AK010_337/337/full/full/0/native.jpg",
    "latitude": 47.71785,
    "longitude": 15.98167,
    "ID": "AT",
    "city": "Vöstenhof",
    "building": "Schloss Vöstenhof",
    "date": 1906
  },
  {
    "filename": "ak013_518.jpg",
    "URL": "https://iiif.onb.ac.at/images/AKON/AK013_518/518/full/full/0/native.jpg",
    "latitude": 48.38333,
    "longitude": 16.31667,
    "ID": "AT",
    "city": "Burg Kreuzenstein",
    "building": "Burg Kreuzenstein",
    "date": 1906
  },
  {
    "filename": "ak013_519.jpg",
    "URL": "https://iiif.onb.ac.at/images/AKON/AK013_519/519/full/full/0/native.jpg",
    "latitude": 48.38333,
    "longitude": 16.31667,
    "ID": "AT",
    "city": "Burg Kreuzenstein",
    "building": "Burg Kreuzenstein",
    "date": 1906
  },
  {
    "filename": "ak014_023.jpg",
    "URL": "https://iiif.onb.ac.at/images/AKON/AK014_023/023/full/full/0/native.jpg",
    "latitude": 48.20906,
    "longitude": 16.37135,
    "ID": "AT",
    "city": "Innere Stadt",
    "building": "Parlament",
    "date": 1906
  },
  {
    "filename": "ak014_095.jpg",
    "URL": "https://iiif.onb.ac.at/images/AKON/AK014_095/095/full/full/0/native.jpg",
    "latitude": 48.20041,
    "longitude": 16.36542,
    "ID": "AT",
    "city": "Secession",
    "building": "Seccessions-Ausstellung",
    "date": 1906
  },
  {
    "filename": "ak014_098.jpg",
    "URL": "https://iiif.onb.ac.at/images/AKON/AK014_098/098/full/full/0/native.jpg",
    "latitude": 48.20849,
    "longitude": 16.37208,
    "ID": "AT",
    "city": "Wien",
    "building": "Wiener Eislauf-Verein, Palais der Wiener Kaufmannschaft",
    "date": 1906
  },
  {
    "filename": "ak014_334.jpg",
    "URL": "https://iiif.onb.ac.at/images/AKON/AK014_334/334/full/full/0/native.jpg",
    "latitude": 47.69255,
    "longitude": 15.80915,
    "ID": "AT",
    "city": "Edlach an der Rax",
    "building": "Dr. Konried's Kuranstalt",
    "date": 1906
  },
  {
    "filename": "ak014_337.jpg",
    "URL": "https://iiif.onb.ac.at/images/AKON/AK014_337/337/full/full/0/native.jpg",
    "latitude": 47.69255,
    "longitude": 15.80915,
    "ID": "AT",
    "city": "Edlach an der Rax",
    "building": "Curanstalt Dr. Konried",
    "date": 1906
  },
  {
    "filename": "ak015_314.jpg",
    "URL": "https://iiif.onb.ac.at/images/AKON/AK015_314/314/full/full/0/native.jpg",
    "latitude": 47.77306,
    "longitude": 15.31639,
    "ID": "AT",
    "city": "Mariazell",
    "building": "Wallfahrtskirche",
    "date": 1906
  },
  {
    "filename": "ak016_200.jpg",
    "URL": "https://iiif.onb.ac.at/images/AKON/AK016_200/200/full/full/0/native.jpg",
    "latitude": 47.65949,
    "longitude": 15.82151,
    "ID": "AT",
    "city": "Breitenstein am Semmering",
    "building": "Erholungsheim",
    "date": 1906
  },
  {
    "filename": "ak016_438.jpg",
    "URL": "https://iiif.onb.ac.at/images/AKON/AK016_438/438/full/full/0/native.jpg",
    "latitude": 48.20769,
    "longitude": 16.17539,
    "ID": "AT",
    "city": "Purkersdorf",
    "building": "Sanatorium",
    "date": 1906
  },
  {
    "filename": "ak016_439.jpg",
    "URL": "https://iiif.onb.ac.at/images/AKON/AK016_439/439/full/full/0/native.jpg",
    "latitude": 48.20769,
    "longitude": 16.17539,
    "ID": "AT",
    "city": "Purkersdorf",
    "building": "Sanatorium",
    "date": 1906
  },
  {
    "filename": "ak016_440.jpg",
    "URL": "https://iiif.onb.ac.at/images/AKON/AK016_440/440/full/full/0/native.jpg",
    "latitude": 48.20769,
    "longitude": 16.17539,
    "ID": "AT",
    "city": "Purkersdorf",
    "building": "Sanatorium",
    "date": 1906
  },
  {
    "filename": "ak017_302.jpg",
    "URL": "https://iiif.onb.ac.at/images/AKON/AK017_302/302/full/full/0/native.jpg",
    "latitude": 48.20769,
    "longitude": 16.17539,
    "ID": "AT",
    "city": "Purkersdorf",
    "building": "Sanatorium",
    "date": 1906
  },
  {
    "filename": "ak019_429.jpg",
    "URL": "https://iiif.onb.ac.at/images/AKON/AK019_429/429/full/full/0/native.jpg",
    "latitude": 47.07,
    "longitude": 15.39871,
    "ID": "AT",
    "city": "Eggenberg",
    "building": "Schloss",
    "date": 1906
  },
  {
    "filename": "ak019_496.jpg",
    "URL": "https://iiif.onb.ac.at/images/AKON/AK019_496/496/full/full/0/native.jpg",
    "latitude": 46.95667,
    "longitude": 12.74639,
    "ID": "AT",
    "city": "Schobergruppe",
    "building": "Erzherzog Johannhütte",
    "date": 1906
  },
  {
    "filename": "ak019_560.jpg",
    "URL": "https://iiif.onb.ac.at/images/AKON/AK019_560/560/full/full/0/native.jpg",
    "latitude": 47.41667,
    "longitude": 15,
    "ID": "AT",
    "city": "Trofaiach",
    "building": "Löscherhube",
    "date": 1906
  },
  {
    "filename": "ak019_561.jpg",
    "URL": "https://iiif.onb.ac.at/images/AKON/AK019_561/561/full/full/0/native.jpg",
    "latitude": 47.55,
    "longitude": 14.71667,
    "ID": "AT",
    "city": "Lugauer",
    "building": "Gasthaus zur Linde",
    "date": 1906
  },
  {
    "filename": "ak020_225.jpg",
    "URL": "https://iiif.onb.ac.at/images/AKON/AK020_225/225/full/full/0/native.jpg",
    "latitude": 48.20789,
    "longitude": 16.35778,
    "ID": "AT",
    "city": "Parlament",
    "building": "Parkament",
    "date": 1906
  },
  {
    "filename": "ak020_420.jpg",
    "URL": "https://iiif.onb.ac.at/images/AKON/AK020_420/420/full/full/0/native.jpg",
    "latitude": 48.17111,
    "longitude": 16.37778,
    "ID": "AT",
    "city": "Favoriten",
    "building": "K. u. k. Artillerie-Arsenal, Kirche z. h. Maria vom Siege",
    "date": 1906
  },
  {
    "filename": "ak020_459.jpg",
    "URL": "https://iiif.onb.ac.at/images/AKON/AK020_459/459/full/full/0/native.jpg",
    "latitude": 48.29404,
    "longitude": 15.40382,
    "ID": "AT",
    "city": "Aggsbach",
    "building": "Staffenberger's Gasthof",
    "date": 1906
  },
  {
    "filename": "ak020_471.jpg",
    "URL": "https://iiif.onb.ac.at/images/AKON/AK020_471/471/full/full/0/native.jpg",
    "latitude": 48.2054,
    "longitude": 13.9559,
    "ID": "AT",
    "city": "Krenglbach",
    "building": "Missionshaus zum heil. Franz von Sales",
    "date": 1906
  },
  {
    "filename": "ak021_146.jpg",
    "URL": "https://iiif.onb.ac.at/images/AKON/AK021_146/146/full/full/0/native.jpg",
    "latitude": 48.30521,
    "longitude": 16.32522,
    "ID": "AT",
    "city": "Klosterneuburg",
    "building": "Chorherrenstift, Kirche",
    "date": 1906
  },
  {
    "filename": "ak021_404.jpg",
    "URL": "https://iiif.onb.ac.at/images/AKON/AK021_404/404/full/full/0/native.jpg",
    "latitude": 47.63333,
    "longitude": 14.48333,
    "ID": "AT",
    "city": "Admonter Haus",
    "building": "Admonter-Haus",
    "date": 1906
  },
  {
    "filename": "ak024_144.jpg",
    "URL": "https://iiif.onb.ac.at/images/AKON/AK024_144/144/full/full/0/native.jpg",
    "latitude": 48.19832,
    "longitude": 16.37139,
    "ID": "AT",
    "city": "Karlskirche",
    "building": "Stadtbahnhof, Karlskirche",
    "date": 1906
  },
  {
    "filename": "ak024_159.jpg",
    "URL": "https://iiif.onb.ac.at/images/AKON/AK024_159/159/full/full/0/native.jpg",
    "latitude": 48.21667,
    "longitude": 16.4,
    "ID": "AT",
    "city": "Leopoldstadt",
    "building": "Direktionsgebäude, Nordbahnhof",
    "date": 1906
  },
  {
    "filename": "ak024_164.jpg",
    "URL": "https://iiif.onb.ac.at/images/AKON/AK024_164/164/full/full/0/native.jpg",
    "latitude": 48.20609,
    "longitude": 16.41169,
    "ID": "AT",
    "city": "Prater",
    "building": "Lustspiel-Theater",
    "date": 1906
  },
  {
    "filename": "ak024_180.jpg",
    "URL": "https://iiif.onb.ac.at/images/AKON/AK024_180/180/full/full/0/native.jpg",
    "latitude": 48.19811,
    "longitude": 16.39482,
    "ID": "AT",
    "city": "Landstraße",
    "building": "Wiener Bürger-Theater",
    "date": 1906
  },
  {
    "filename": "ak024_195.jpg",
    "URL": "https://iiif.onb.ac.at/images/AKON/AK024_195/195/full/full/0/native.jpg",
    "latitude": 48.21532,
    "longitude": 16.35949,
    "ID": "AT",
    "city": "Votivkirche",
    "building": "Votivkirche",
    "date": 1906
  },
  {
    "filename": "ak024_197.jpg",
    "URL": "https://iiif.onb.ac.at/images/AKON/AK024_197/197/full/full/0/native.jpg",
    "latitude": 48.21532,
    "longitude": 16.35949,
    "ID": "AT",
    "city": "Votivkirche",
    "building": "Votivkirche",
    "date": 1906
  },
  {
    "filename": "ak024_204.jpg",
    "URL": "https://iiif.onb.ac.at/images/AKON/AK024_204/204/full/full/0/native.jpg",
    "latitude": 48.2,
    "longitude": 16.35,
    "ID": "AT",
    "city": "Neubau",
    "building": "Hôtel Höller, Deutsches Volkstheater",
    "date": 1906
  },
  {
    "filename": "ak024_327.jpg",
    "URL": "https://iiif.onb.ac.at/images/AKON/AK024_327/327/full/full/0/native.jpg",
    "latitude": 47.06667,
    "longitude": 15.45,
    "ID": "AT",
    "city": "Graz",
    "building": "Rathaus",
    "date": 1906
  },
  {
    "filename": "ak024_334.jpg",
    "URL": "https://iiif.onb.ac.at/images/AKON/AK024_334/334/full/full/0/native.jpg",
    "latitude": 47.06667,
    "longitude": 15.45,
    "ID": "AT",
    "city": "Graz",
    "building": "Stadttheater",
    "date": 1906
  },
  {
    "filename": "ak025_143.jpg",
    "URL": "https://iiif.onb.ac.at/images/AKON/AK025_143/143/full/full/0/native.jpg",
    "latitude": 47.78333,
    "longitude": 15.81667,
    "ID": "AT",
    "city": "Fischerhütte",
    "building": "Fischerhütte",
    "date": 1906
  },
  {
    "filename": "ak025_213.jpg",
    "URL": "https://iiif.onb.ac.at/images/AKON/AK025_213/213/full/full/0/native.jpg",
    "latitude": 47.6,
    "longitude": 13.7,
    "ID": "AT",
    "city": "Hoher Sarstein",
    "building": "Villa Roth",
    "date": 1906
  },
  {
    "filename": "ak026_126.jpg",
    "URL": "https://iiif.onb.ac.at/images/AKON/AK026_126/126/full/full/0/native.jpg",
    "latitude": 48.21303,
    "longitude": 16.35993,
    "ID": "AT",
    "city": "Universität Wien",
    "building": "K. k. Universität",
    "date": 1906
  },
  {
    "filename": "ak028_095.jpg",
    "URL": "https://iiif.onb.ac.at/images/AKON/AK028_095/095/full/full/0/native.jpg",
    "latitude": 48.19522,
    "longitude": 16.35032,
    "ID": "AT",
    "city": "Mariahilf",
    "building": "Stadtbahnstation Burggasse",
    "date": 1906
  },
  {
    "filename": "ak028_129.jpg",
    "URL": "https://iiif.onb.ac.at/images/AKON/AK028_129/129/full/full/0/native.jpg",
    "latitude": 48.20906,
    "longitude": 16.37135,
    "ID": "AT",
    "city": "Innere Stadt",
    "building": "Stefansdom",
    "date": 1906
  },
  {
    "filename": "ak028_165.jpg",
    "URL": "https://iiif.onb.ac.at/images/AKON/AK028_165/165/full/full/0/native.jpg",
    "latitude": 48.20906,
    "longitude": 16.37135,
    "ID": "AT",
    "city": "Innere Stadt",
    "building": "Grand-Hotel No. 9",
    "date": 1906
  },
  {
    "filename": "ak028_183.jpg",
    "URL": "https://iiif.onb.ac.at/images/AKON/AK028_183/183/full/full/0/native.jpg",
    "latitude": 47.86667,
    "longitude": 15.05,
    "ID": "AT",
    "city": "Lunzer See",
    "building": "Schloss des Dr. Kuppelwieser",
    "date": 1906
  },
  {
    "filename": "ak028_198.jpg",
    "URL": "https://iiif.onb.ac.at/images/AKON/AK028_198/198/full/full/0/native.jpg",
    "latitude": 47.84383,
    "longitude": 16.02891,
    "ID": "AT",
    "city": "Waldeggerhütte",
    "building": "Waldeggerhütte",
    "date": 1906
  },
  {
    "filename": "ak028_237.jpg",
    "URL": "https://iiif.onb.ac.at/images/AKON/AK028_237/237/full/full/0/native.jpg",
    "latitude": 48.20789,
    "longitude": 16.35778,
    "ID": "AT",
    "city": "Parlament",
    "building": "Parlament",
    "date": 1906
  },
  {
    "filename": "ak028_308.jpg",
    "URL": "https://iiif.onb.ac.at/images/AKON/AK028_308/308/full/full/0/native.jpg",
    "latitude": 48.20906,
    "longitude": 16.37135,
    "ID": "AT",
    "city": "Innere Stadt",
    "building": "Hôtel Metropole",
    "date": 1906
  },
  {
    "filename": "ak028_311.jpg",
    "URL": "https://iiif.onb.ac.at/images/AKON/AK028_311/311/full/full/0/native.jpg",
    "latitude": 48.20458,
    "longitude": 16.38009,
    "ID": "AT",
    "city": "Stadtpark",
    "building": "Palais Coburg, Palais Erzherzog Eugen",
    "date": 1906
  },
  {
    "filename": "ak028_333.jpg",
    "URL": "https://iiif.onb.ac.at/images/AKON/AK028_333/333/full/full/0/native.jpg",
    "latitude": 48.19811,
    "longitude": 16.39482,
    "ID": "AT",
    "city": "Landstraße",
    "building": "Schwarzenberg-Palais",
    "date": 1906
  },
  {
    "filename": "ak028_355.jpg",
    "URL": "https://iiif.onb.ac.at/images/AKON/AK028_355/355/full/full/0/native.jpg",
    "latitude": 48.22825,
    "longitude": 15.33138,
    "ID": "AT",
    "city": "Stift Melk",
    "building": "Elisabethinum, Städtisches Krankenhaus",
    "date": 1906
  },
  {
    "filename": "ak028_371.jpg",
    "URL": "https://iiif.onb.ac.at/images/AKON/AK028_371/371/full/full/0/native.jpg",
    "latitude": 48.00543,
    "longitude": 16.23264,
    "ID": "AT",
    "city": "Baden bei Wien",
    "building": "Cenral-Hôtel",
    "date": 1906
  },
  {
    "filename": "ak028_377.jpg",
    "URL": "https://iiif.onb.ac.at/images/AKON/AK028_377/377/full/full/0/native.jpg",
    "latitude": 47.65,
    "longitude": 16.18333,
    "ID": "AT",
    "city": "Thernberg",
    "building": "Burgruine",
    "date": 1906
  },
  {
    "filename": "ak028_385.jpg",
    "URL": "https://iiif.onb.ac.at/images/AKON/AK028_385/385/full/full/0/native.jpg",
    "latitude": 47.63333,
    "longitude": 13.86667,
    "ID": "AT",
    "city": "Grundlsee",
    "building": "Villa Roth",
    "date": 1906
  },
  {
    "filename": "ak028_395.jpg",
    "URL": "https://iiif.onb.ac.at/images/AKON/AK028_395/395/full/full/0/native.jpg",
    "latitude": 47.46667,
    "longitude": 13.18333,
    "ID": "AT",
    "city": "Werfen",
    "building": "Feste Hohen-Werfen",
    "date": 1906
  },
  {
    "filename": "ak032_035.jpg",
    "URL": "https://iiif.onb.ac.at/images/AKON/AK032_035/035/full/full/0/native.jpg",
    "latitude": 48.21667,
    "longitude": 15.21667,
    "ID": "AT",
    "city": "Klein-Pöchlarn",
    "building": "Thonwaren-Fabrik",
    "date": 1906
  },
  {
    "filename": "ak032_036.jpg",
    "URL": "https://iiif.onb.ac.at/images/AKON/AK032_036/036/full/full/0/native.jpg",
    "latitude": 48.21667,
    "longitude": 15.21667,
    "ID": "AT",
    "city": "Klein-Pöchlarn",
    "building": "Thonwaren-Fabrik",
    "date": 1906
  },
  {
    "filename": "ak032_095.jpg",
    "URL": "https://iiif.onb.ac.at/images/AKON/AK032_095/095/full/full/0/native.jpg",
    "latitude": 47.86852,
    "longitude": 16.05154,
    "ID": "AT",
    "city": "Waldegg",
    "building": "Hôtel Kuchner",
    "date": 1906
  },
  {
    "filename": "ak033_007.jpg",
    "URL": "https://iiif.onb.ac.at/images/AKON/AK033_007/007/full/full/0/native.jpg",
    "latitude": 48.04274,
    "longitude": 14.42127,
    "ID": "AT",
    "city": "Steyr",
    "building": "K. u. k. Artillerie-Kaserne, Mannschaftsgebäude",
    "date": 1906
  },
  {
    "filename": "ak033_008.jpg",
    "URL": "https://iiif.onb.ac.at/images/AKON/AK033_008/008/full/full/0/native.jpg",
    "latitude": 48.04274,
    "longitude": 14.42127,
    "ID": "AT",
    "city": "Steyr",
    "building": "K. u. k. Artillerie-Kaserne",
    "date": 1906
  },
  {
    "filename": "ak033_009.jpg",
    "URL": "https://iiif.onb.ac.at/images/AKON/AK033_009/009/full/full/0/native.jpg",
    "latitude": 48.04274,
    "longitude": 14.42127,
    "ID": "AT",
    "city": "Steyr",
    "building": "K. u. k. Artillerie-Kaserne",
    "date": 1906
  },
  {
    "filename": "ak033_021.jpg",
    "URL": "https://iiif.onb.ac.at/images/AKON/AK033_021/021/full/full/0/native.jpg",
    "latitude": 48.00474,
    "longitude": 15.16817,
    "ID": "AT",
    "city": "Scheibbs",
    "building": "Pfarrkirche",
    "date": 1906
  },
  {
    "filename": "ak033_058.jpg",
    "URL": "https://iiif.onb.ac.at/images/AKON/AK033_058/058/full/full/0/native.jpg",
    "latitude": 48.20769,
    "longitude": 16.17539,
    "ID": "AT",
    "city": "Purkersdorf",
    "building": "Hotel Senfelder",
    "date": 1906
  },
  {
    "filename": "ak033_059.jpg",
    "URL": "https://iiif.onb.ac.at/images/AKON/AK033_059/059/full/full/0/native.jpg",
    "latitude": 48.20769,
    "longitude": 16.17539,
    "ID": "AT",
    "city": "Purkersdorf",
    "building": "Sanatorium",
    "date": 1906
  },
  {
    "filename": "ak033_597.jpg",
    "URL": "https://iiif.onb.ac.at/images/AKON/AK033_597/597/full/full/0/native.jpg",
    "latitude": 48.20769,
    "longitude": 16.17539,
    "ID": "AT",
    "city": "Purkersdorf",
    "building": "Sanatorium",
    "date": 1906
  },
  {
    "filename": "ak034_181.jpg",
    "URL": "https://iiif.onb.ac.at/images/AKON/AK034_181/181/full/full/0/native.jpg",
    "latitude": 47.68333,
    "longitude": 15.6,
    "ID": "AT",
    "city": "Schneealpe",
    "building": "Windberghütten",
    "date": 1906
  },
  {
    "filename": "ak034_194.jpg",
    "URL": "https://iiif.onb.ac.at/images/AKON/AK034_194/194/full/full/0/native.jpg",
    "latitude": 47.67487,
    "longitude": 15.93893,
    "ID": "AT",
    "city": "Gloggnitz",
    "building": "Schloss",
    "date": 1906
  },
  {
    "filename": "ak034_302.jpg",
    "URL": "https://iiif.onb.ac.at/images/AKON/AK034_302/302/full/full/0/native.jpg",
    "latitude": 47.58333,
    "longitude": 14.61667,
    "ID": "AT",
    "city": "Gesäuse",
    "building": "Hôtel Gesäuse",
    "date": 1906
  },
  {
    "filename": "ak034_578.jpg",
    "URL": "https://iiif.onb.ac.at/images/AKON/AK034_578/578/full/full/0/native.jpg",
    "latitude": 48.05559,
    "longitude": 16.12493,
    "ID": "AT",
    "city": "Heiligenkreuz",
    "building": "Cistercienser Abtei",
    "date": 1906
  },
  {
    "filename": "ak035_001.jpg",
    "URL": "https://iiif.onb.ac.at/images/AKON/AK035_001/001/full/full/0/native.jpg",
    "latitude": 47.91667,
    "longitude": 15.93333,
    "ID": "AT",
    "city": "Steinwandklamm",
    "building": "Jos. Kohl's Gasthof",
    "date": 1906
  },
  {
    "filename": "ak036_278.jpg",
    "URL": "https://iiif.onb.ac.at/images/AKON/AK036_278/278/full/full/0/native.jpg",
    "latitude": 47.63844,
    "longitude": 13.76278,
    "ID": "AT",
    "city": "Altaussee",
    "building": "Dr. Schreiber's Cur- und Wasserheilanstalt Alpenheim",
    "date": 1906
  },
  {
    "filename": "ak036_431.jpg",
    "URL": "https://iiif.onb.ac.at/images/AKON/AK036_431/431/full/full/0/native.jpg",
    "latitude": 48.25,
    "longitude": 16.33306,
    "ID": "AT",
    "city": "Döbling",
    "building": "K. k. Hochschule für Bodenkultur",
    "date": 1906
  },
  {
    "filename": "ak036_568.jpg",
    "URL": "https://iiif.onb.ac.at/images/AKON/AK036_568/568/full/full/0/native.jpg",
    "latitude": 48.18912,
    "longitude": 16.09117,
    "ID": "AT",
    "city": "Tullnerbach-Lawies",
    "building": "Mädchen-Pensionat Sacré coeur",
    "date": 1906
  },
  {
    "filename": "ak038_006.jpg",
    "URL": "https://iiif.onb.ac.at/images/AKON/AK038_006/006/full/full/0/native.jpg",
    "latitude": 48.20458,
    "longitude": 16.38009,
    "ID": "AT",
    "city": "Stadtpark",
    "building": "Milchtrinkhalle",
    "date": 1906
  },
  {
    "filename": "ak038_055.jpg",
    "URL": "https://iiif.onb.ac.at/images/AKON/AK038_055/055/full/full/0/native.jpg",
    "latitude": 48.20906,
    "longitude": 16.37135,
    "ID": "AT",
    "city": "Innere Stadt",
    "building": "Wiener Handels-Akademie",
    "date": 1906
  },
  {
    "filename": "ak038_066.jpg",
    "URL": "https://iiif.onb.ac.at/images/AKON/AK038_066/066/full/full/0/native.jpg",
    "latitude": 48.206,
    "longitude": 16.37058,
    "ID": "AT",
    "city": "Neuer Markt",
    "building": "Hotel Meissl & Schadn, Hôtel Krantz",
    "date": 1906
  },
  {
    "filename": "ak038_331.jpg",
    "URL": "https://iiif.onb.ac.at/images/AKON/AK038_331/331/full/full/0/native.jpg",
    "latitude": 48.20906,
    "longitude": 16.37135,
    "ID": "AT",
    "city": "Innere Stadt",
    "building": "Pfarrkirche z. h. Augustin",
    "date": 1906
  },
  {
    "filename": "ak039_358.jpg",
    "URL": "https://iiif.onb.ac.at/images/AKON/AK039_358/358/full/full/0/native.jpg",
    "latitude": 48.20906,
    "longitude": 16.37135,
    "ID": "AT",
    "city": "Innere Stadt",
    "building": "Zentral-Fischmarkt",
    "date": 1906
  },
  {
    "filename": "ak039_439.jpg",
    "URL": "https://iiif.onb.ac.at/images/AKON/AK039_439/439/full/full/0/native.jpg",
    "latitude": 48.22825,
    "longitude": 15.33138,
    "ID": "AT",
    "city": "Stift Melk",
    "building": "Elisabethinum, Städtisches Krankenhaus",
    "date": 1906
  },
  {
    "filename": "ak039_464.jpg",
    "URL": "https://iiif.onb.ac.at/images/AKON/AK039_464/464/full/full/0/native.jpg",
    "latitude": 48.02346,
    "longitude": 15.60282,
    "ID": "AT",
    "city": "Marktl",
    "building": "Zink-Walzwerk",
    "date": 1906
  },
  {
    "filename": "ak041_138.jpg",
    "URL": "https://iiif.onb.ac.at/images/AKON/AK041_138/138/full/full/0/native.jpg",
    "latitude": 47.79941,
    "longitude": 13.04399,
    "ID": "AT",
    "city": "Salzburg",
    "building": "Hohen-Salzburg",
    "date": 1906
  },
  {
    "filename": "ak041_200.jpg",
    "URL": "https://iiif.onb.ac.at/images/AKON/AK041_200/200/full/full/0/native.jpg",
    "latitude": 48.19811,
    "longitude": 16.39482,
    "ID": "AT",
    "city": "Landstraße",
    "building": "Wiener Bürgertheater, Wiener Bürgerhof",
    "date": 1906
  },
  {
    "filename": "ak041_207.jpg",
    "URL": "https://iiif.onb.ac.at/images/AKON/AK041_207/207/full/full/0/native.jpg",
    "latitude": 48.2,
    "longitude": 16.35,
    "ID": "AT",
    "city": "Neubau",
    "building": "Lazaristenkirche, Westend",
    "date": 1906
  },
  {
    "filename": "ak041_210.jpg",
    "URL": "https://iiif.onb.ac.at/images/AKON/AK041_210/210/full/full/0/native.jpg",
    "latitude": 48.19811,
    "longitude": 16.39482,
    "ID": "AT",
    "city": "Landstraße",
    "building": "Wiener Bürgertheater, Wiener Bürgerhof",
    "date": 1906
  },
  {
    "filename": "ak042_039.jpg",
    "URL": "https://iiif.onb.ac.at/images/AKON/AK042_039/039/full/full/0/native.jpg",
    "latitude": 46.61028,
    "longitude": 13.85583,
    "ID": "AT",
    "city": "Villach",
    "building": "St. Martinskirche",
    "date": 1906
  },
  {
    "filename": "ak042_078.jpg",
    "URL": "https://iiif.onb.ac.at/images/AKON/AK042_078/078/full/full/0/native.jpg",
    "latitude": 47.96004,
    "longitude": 14.77361,
    "ID": "AT",
    "city": "Waidhofen an der Ybbs",
    "building": "Schloss",
    "date": 1906
  },
  {
    "filename": "ak042_578.jpg",
    "URL": "https://iiif.onb.ac.at/images/AKON/AK042_578/578/full/full/0/native.jpg",
    "latitude": 48.20906,
    "longitude": 16.37135,
    "ID": "AT",
    "city": "Innere Stadt",
    "building": "Hôtel Germania, Stadtbahn-Haltestelle",
    "date": 1906
  },
  {
    "filename": "ak042_579.jpg",
    "URL": "https://iiif.onb.ac.at/images/AKON/AK042_579/579/full/full/0/native.jpg",
    "latitude": 48.206,
    "longitude": 16.37058,
    "ID": "AT",
    "city": "Neuer Markt",
    "building": "Hotel Meissl & Schadn, Hôtel Krantz",
    "date": 1906
  },
  {
    "filename": "ak042_586.jpg",
    "URL": "https://iiif.onb.ac.at/images/AKON/AK042_586/586/full/full/0/native.jpg",
    "latitude": 48.20085,
    "longitude": 16.37468,
    "ID": "AT",
    "city": "Schwarzenbergplatz",
    "building": "Haus der Kaufmannschaft",
    "date": 1906
  },
  {
    "filename": "ak042_601.jpg",
    "URL": "https://iiif.onb.ac.at/images/AKON/AK042_601/601/full/full/0/native.jpg",
    "latitude": 48.20906,
    "longitude": 16.37135,
    "ID": "AT",
    "city": "Innere Stadt",
    "building": "Hotel Metropole",
    "date": 1906
  },
  {
    "filename": "ak043_268.jpg",
    "URL": "https://iiif.onb.ac.at/images/AKON/AK043_268/268/full/full/0/native.jpg",
    "latitude": 48.23123,
    "longitude": 16.29337,
    "ID": "AT",
    "city": "Dornbach",
    "building": "Villa Schöller, Schloss Schwarzenberg",
    "date": 1906
  },
  {
    "filename": "ak043_310.jpg",
    "URL": "https://iiif.onb.ac.at/images/AKON/AK043_310/310/full/full/0/native.jpg",
    "latitude": 48.27475,
    "longitude": 16.35468,
    "ID": "AT",
    "city": "Kahlenbergerdorf",
    "building": "Hôtel Kahlenberg",
    "date": 1906
  },
  {
    "filename": "ak043_364.jpg",
    "URL": "https://iiif.onb.ac.at/images/AKON/AK043_364/364/full/full/0/native.jpg",
    "latitude": 48.20458,
    "longitude": 16.38009,
    "ID": "AT",
    "city": "Stadtpark",
    "building": "Milchtrinkhalle der Stadt Wien",
    "date": 1906
  },
  {
    "filename": "ak043_365.jpg",
    "URL": "https://iiif.onb.ac.at/images/AKON/AK043_365/365/full/full/0/native.jpg",
    "latitude": 48.20906,
    "longitude": 16.37135,
    "ID": "AT",
    "city": "Innere Stadt",
    "building": "Hôtel Metropole",
    "date": 1906
  },
  {
    "filename": "ak043_383.jpg",
    "URL": "https://iiif.onb.ac.at/images/AKON/AK043_383/383/full/full/0/native.jpg",
    "latitude": 48.05559,
    "longitude": 16.12493,
    "ID": "AT",
    "city": "Heiligenkreuz",
    "building": "Cistercienser-Abtei",
    "date": 1906
  },
  {
    "filename": "ak043_590.jpg",
    "URL": "https://iiif.onb.ac.at/images/AKON/AK043_590/590/full/full/0/native.jpg",
    "latitude": 48.62712,
    "longitude": 15.63406,
    "ID": "AT",
    "city": "Schloß Rosenburg",
    "building": "Schloss Rosenburg im Kampthale",
    "date": 1906
  },
  {
    "filename": "ak044_172.jpg",
    "URL": "https://iiif.onb.ac.at/images/AKON/AK044_172/172/full/full/0/native.jpg",
    "latitude": 47.95,
    "longitude": 15.65,
    "ID": "AT",
    "city": "Reisalpe",
    "building": "Reisalpe, Brennalpenhaus",
    "date": 1906
  },
  {
    "filename": "ak044_374.jpg",
    "URL": "https://iiif.onb.ac.at/images/AKON/AK044_374/374/full/full/0/native.jpg",
    "latitude": 48.06833,
    "longitude": 16.35607,
    "ID": "AT",
    "city": "Laxenburg",
    "building": "K. k. Lustschloss Laxenburg: Franzensburg",
    "date": 1906
  },
  {
    "filename": "ak044_428.jpg",
    "URL": "https://iiif.onb.ac.at/images/AKON/AK044_428/428/full/full/0/native.jpg",
    "latitude": 48.21303,
    "longitude": 16.35993,
    "ID": "AT",
    "city": "Universität Wien",
    "building": "K. k. Universität, Votivkirche",
    "date": 1906
  },
  {
    "filename": "ak044_437.jpg",
    "URL": "https://iiif.onb.ac.at/images/AKON/AK044_437/437/full/full/0/native.jpg",
    "latitude": 48.20906,
    "longitude": 16.37135,
    "ID": "AT",
    "city": "Innere Stadt",
    "building": "Hôtel de France",
    "date": 1906
  },
  {
    "filename": "ak044_537.jpg",
    "URL": "https://iiif.onb.ac.at/images/AKON/AK044_537/537/full/full/0/native.jpg",
    "latitude": 48.2,
    "longitude": 16.3,
    "ID": "AT",
    "city": "Penzing",
    "building": "Brauhaus",
    "date": 1906
  },
  {
    "filename": "ak045_026.jpg",
    "URL": "https://iiif.onb.ac.at/images/AKON/AK045_026/026/full/full/0/native.jpg",
    "latitude": 47.63333,
    "longitude": 15.91667,
    "ID": "AT",
    "city": "Schlagl",
    "building": "Hôtel J. Westermayer",
    "date": 1906
  },
  {
    "filename": "ak046_301.jpg",
    "URL": "https://iiif.onb.ac.at/images/AKON/AK046_301/301/full/full/0/native.jpg",
    "latitude": 48.20906,
    "longitude": 16.37135,
    "ID": "AT",
    "city": "Innere Stadt",
    "building": "Hôtel Meissl & Schadn, Hôtel Krantz",
    "date": 1906
  },
  {
    "filename": "ak046_345.jpg",
    "URL": "https://iiif.onb.ac.at/images/AKON/AK046_345/345/full/full/0/native.jpg",
    "latitude": 48.20809,
    "longitude": 16.36157,
    "ID": "AT",
    "city": "Volksgarten",
    "building": "K. k. Hofmuseen",
    "date": 1906
  },
  {
    "filename": "ak047_586.jpg",
    "URL": "https://iiif.onb.ac.at/images/AKON/AK047_586/586/full/full/0/native.jpg",
    "latitude": 48.2,
    "longitude": 16.35,
    "ID": "AT",
    "city": "Neubau",
    "building": "Hôtel Höller, Deutsches Volkstheater",
    "date": 1906
  },
  {
    "filename": "ak049_125.jpg",
    "URL": "https://iiif.onb.ac.at/images/AKON/AK049_125/125/full/full/0/native.jpg",
    "latitude": 48.06667,
    "longitude": 16.36667,
    "ID": "AT",
    "city": "Franzensburg",
    "building": "Franzensburg",
    "date": 1906
  },
  {
    "filename": "ak050_133.jpg",
    "URL": "https://iiif.onb.ac.at/images/AKON/AK050_133/133/full/full/0/native.jpg",
    "latitude": 47.79941,
    "longitude": 13.04399,
    "ID": "AT",
    "city": "Salzburg",
    "building": "Hohen-Salzburg",
    "date": 1906
  },
  {
    "filename": "ak050_319.jpg",
    "URL": "https://iiif.onb.ac.at/images/AKON/AK050_319/319/full/full/0/native.jpg",
    "latitude": 47.71667,
    "longitude": 15.88333,
    "ID": "AT",
    "city": "Gahns",
    "building": "Curanstalt Dr. Konried mit Dependance",
    "date": 1906
  },
  {
    "filename": "ak050_321.jpg",
    "URL": "https://iiif.onb.ac.at/images/AKON/AK050_321/321/full/full/0/native.jpg",
    "latitude": 47.58333,
    "longitude": 16,
    "ID": "AT",
    "city": "Sankt Corona am Wechsel",
    "building": "Wallfahrtskirche",
    "date": 1906
  },
  {
    "filename": "ak053_448.jpg",
    "URL": "https://iiif.onb.ac.at/images/AKON/AK053_448/448/full/full/0/native.jpg",
    "latitude": 48.20609,
    "longitude": 16.41169,
    "ID": "AT",
    "city": "Prater",
    "building": "Rotunde",
    "date": 1906
  },
  {
    "filename": "ak053_453.jpg",
    "URL": "https://iiif.onb.ac.at/images/AKON/AK053_453/453/full/full/0/native.jpg",
    "latitude": 48.04274,
    "longitude": 14.42127,
    "ID": "AT",
    "city": "Steyr",
    "building": "K. u. k. Artillerie-Kaserne, Mannschaftsgebäude",
    "date": 1906
  },
  {
    "filename": "ak055_003.jpg",
    "URL": "https://iiif.onb.ac.at/images/AKON/AK055_003/003/full/full/0/native.jpg",
    "latitude": 48.35565,
    "longitude": 15.38783,
    "ID": "AT",
    "city": "Spitz",
    "building": "Ruine Hinterhaus",
    "date": 1906
  },
  {
    "filename": "ak055_005.jpg",
    "URL": "https://iiif.onb.ac.at/images/AKON/AK055_005/005/full/full/0/native.jpg",
    "latitude": 48.35565,
    "longitude": 15.38783,
    "ID": "AT",
    "city": "Spitz",
    "building": "Ruine Hinterhaus",
    "date": 1906
  },
  {
    "filename": "ak056_331.jpg",
    "URL": "https://iiif.onb.ac.at/images/AKON/AK056_331/331/full/full/0/native.jpg",
    "latitude": 46.8289,
    "longitude": 12.76903,
    "ID": "AT",
    "city": "Lienz",
    "building": "Schloss Bruck",
    "date": 1906
  },
  {
    "filename": "ak057_530.jpg",
    "URL": "https://iiif.onb.ac.at/images/AKON/AK057_530/530/full/full/0/native.jpg",
    "latitude": 48.19811,
    "longitude": 16.39482,
    "ID": "AT",
    "city": "Landstraße",
    "building": "K. k. Haupt-Münzamt",
    "date": 1906
  },
  {
    "filename": "ak059_089.jpg",
    "URL": "https://iiif.onb.ac.at/images/AKON/AK059_089/089/full/full/0/native.jpg",
    "latitude": 47.929,
    "longitude": 15.08818,
    "ID": "AT",
    "city": "Gaming",
    "building": "Karthause",
    "date": 1906
  },
  {
    "filename": "ak059_102.jpg",
    "URL": "https://iiif.onb.ac.at/images/AKON/AK059_102/102/full/full/0/native.jpg",
    "latitude": 47.85383,
    "longitude": 15.56969,
    "ID": "AT",
    "city": "Sankt Aegyd am Neuwalde",
    "building": "Station, Fabriken",
    "date": 1906
  },
  {
    "filename": "ak059_278.jpg",
    "URL": "https://iiif.onb.ac.at/images/AKON/AK059_278/278/full/full/0/native.jpg",
    "latitude": 47.53333,
    "longitude": 13.46667,
    "ID": "AT",
    "city": "Zwieselalpenhaus",
    "building": "Unterkunftshaus",
    "date": 1906
  },
  {
    "filename": "ak059_279.jpg",
    "URL": "https://iiif.onb.ac.at/images/AKON/AK059_279/279/full/full/0/native.jpg",
    "latitude": 47.53333,
    "longitude": 13.46667,
    "ID": "AT",
    "city": "Zwieselalpenhaus",
    "building": "Unterkunftshaus",
    "date": 1906
  },
  {
    "filename": "ak059_444.jpg",
    "URL": "https://iiif.onb.ac.at/images/AKON/AK059_444/444/full/full/0/native.jpg",
    "latitude": 47.6247,
    "longitude": 15.1611,
    "ID": "AT",
    "city": "Hochschwab",
    "building": "Häusel-Alm",
    "date": 1906
  },
  {
    "filename": "ak060_303.jpg",
    "URL": "https://iiif.onb.ac.at/images/AKON/AK060_303/303/full/full/0/native.jpg",
    "latitude": 48.01312,
    "longitude": 15.59664,
    "ID": "AT",
    "city": "Lilienfeld",
    "building": "P. P. Cistercienser-Stift",
    "date": 1906
  },
  {
    "filename": "ak060_417.jpg",
    "URL": "https://iiif.onb.ac.at/images/AKON/AK060_417/417/full/full/0/native.jpg",
    "latitude": 48.06821,
    "longitude": 15.59835,
    "ID": "AT",
    "city": "Rotheau",
    "building": "Louisenhof",
    "date": 1906
  },
  {
    "filename": "ak062_113.jpg",
    "URL": "https://iiif.onb.ac.at/images/AKON/AK062_113/113/full/full/0/native.jpg",
    "latitude": 48.04469,
    "longitude": 16.09694,
    "ID": "AT",
    "city": "Mayerling",
    "building": "Karmelitinen-Kloster",
    "date": 1906
  },
  {
    "filename": "ak063_142.jpg",
    "URL": "https://iiif.onb.ac.at/images/AKON/AK063_142/142/full/full/0/native.jpg",
    "latitude": 47.71667,
    "longitude": 15.81667,
    "ID": "AT",
    "city": "Höllental",
    "building": "Gasthof zur Singerin",
    "date": 1906
  },
  {
    "filename": "ak063_309.jpg",
    "URL": "https://iiif.onb.ac.at/images/AKON/AK063_309/309/full/full/0/native.jpg",
    "latitude": 47.26667,
    "longitude": 14.68333,
    "ID": "AT",
    "city": "Ingering Zwei",
    "building": "Hofalm",
    "date": 1906
  },
  {
    "filename": "ak065_309.jpg",
    "URL": "https://iiif.onb.ac.at/images/AKON/AK065_309/309/full/full/0/native.jpg",
    "latitude": 47.96533,
    "longitude": 16.21359,
    "ID": "AT",
    "city": "Vöslau",
    "building": "Villa zur schönen Aussicht",
    "date": 1906
  },
  {
    "filename": "ak065_453.jpg",
    "URL": "https://iiif.onb.ac.at/images/AKON/AK065_453/453/full/full/0/native.jpg",
    "latitude": 47.71109,
    "longitude": 13.61893,
    "ID": "AT",
    "city": "Bad Ischl",
    "building": "Hôtel Bodenbauer",
    "date": 1906
  },